{
"type": "FeatureCollection",
"name": "merged",
"crs": { "type": "name", "properties": { "name": "urn:ogc:def:crs:OGC:1.3:CRS84" } },
"features": [
{ "type": "Feature", "properties": { "Name": "Ashokan", "description": "<p>\nFuel: Conventional Hydroelectric<br\/>\nNameplate Output: 4.6", "Plant_Code": 88, "Plant_Name": "Ashokan", "State": "NY", "Zip": "12401", "County": "Ulster", "Latitude": 41.949, "Longitude": -74.2063, "t_Fuels": "Conventional Hydroelectric", "t_Output": 4.6 }, "geometry": { "type": "Point", "coordinates": [ -74.2063, 41.949 ] } },
{ "type": "Feature", "properties": { "Name": "Central Hudson High Falls", "description": "<p>\nFuel: Conventional Hydroelectric<br\/>\nNameplate Output: 3.2", "Plant_Code": 579, "Plant_Name": "Central Hudson High Falls", "State": "NY", "Zip": "12440", "County": "Ulster", "Latitude": 41.828814, "Longitude": -74.131877, "t_Fuels": "Conventional Hydroelectric", "t_Output": 3.2 }, "geometry": { "type": "Point", "coordinates": [ -74.131877, 41.828814 ] } },
{ "type": "Feature", "properties": { "Name": "Upper Mechanicville", "description": "<p>\nFuel: Conventional Hydroelectric<br\/>\nNameplate Output: 16.4", "Plant_Code": 625, "Plant_Name": "Upper Mechanicville", "State": "NY", "Zip": "12170", "County": "Saratoga", "Latitude": 42.9126, "Longitude": -73.6805, "t_Fuels": "Conventional Hydroelectric", "t_Output": 16.4 }, "geometry": { "type": "Point", "coordinates": [ -73.6805, 42.9126 ] } },
{ "type": "Feature", "properties": { "Name": "Jarvis (Hinckley)", "description": "<p>\nFuel: Conventional Hydroelectric<br\/>\nNameplate Output: 9.0", "Plant_Code": 808, "Plant_Name": "Jarvis (Hinckley)", "State": "NY", "Zip": "13352", "County": "Oneida", "Latitude": 43.3121, "Longitude": -75.109, "t_Fuels": "Conventional Hydroelectric", "t_Output": 9.0 }, "geometry": { "type": "Point", "coordinates": [ -75.109, 43.3121 ] } },
{ "type": "Feature", "properties": { "Name": "Danskammer Generating Station", "description": "<p>\nFuel: Natural Gas Steam Turbine, Petroleum Liquids<br\/>\nNameplate Output: 537.4", "Plant_Code": 2480, "Plant_Name": "Danskammer Generating Station", "State": "NY", "Zip": "12550", "County": "Orange", "Latitude": 41.571247, "Longitude": -73.974981, "t_Fuels": "Natural Gas Steam Turbine, Petroleum Liquids", "t_Output": 537.4 }, "geometry": { "type": "Point", "coordinates": [ -73.974981, 41.571247 ] } },
{ "type": "Feature", "properties": { "Name": "Dashville", "description": "<p>\nFuel: Conventional Hydroelectric<br\/>\nNameplate Output: 4.8", "Plant_Code": 2481, "Plant_Name": "Dashville", "State": "NY", "Zip": "12471", "County": "Ulster", "Latitude": 41.8217, "Longitude": -74.0497, "t_Fuels": "Conventional Hydroelectric", "t_Output": 4.8 }, "geometry": { "type": "Point", "coordinates": [ -74.0497, 41.8217 ] } },
{ "type": "Feature", "properties": { "Name": "Neversink", "description": "<p>\nFuel: Conventional Hydroelectric<br\/>\nNameplate Output: 25.0", "Plant_Code": 2483, "Plant_Name": "Neversink", "State": "NY", "Zip": "12740", "County": "Sullivan", "Latitude": 41.8194, "Longitude": -74.6358, "t_Fuels": "Conventional Hydroelectric", "t_Output": 25.0 }, "geometry": { "type": "Point", "coordinates": [ -74.6358, 41.8194 ] } },
{ "type": "Feature", "properties": { "Name": "South Cairo", "description": "<p>\nFuel: Petroleum Liquids<br\/>\nNameplate Output: 21.6", "Plant_Code": 2485, "Plant_Name": "South Cairo", "State": "NY", "Zip": "12413", "County": "Greene", "Latitude": 42.291275, "Longitude": -73.986452, "t_Fuels": "Petroleum Liquids", "t_Output": 21.6 }, "geometry": { "type": "Point", "coordinates": [ -73.986452, 42.291275 ] } },
{ "type": "Feature", "properties": { "Name": "Sturgeon", "description": "<p>\nFuel: Conventional Hydroelectric<br\/>\nNameplate Output: 14.4", "Plant_Code": 2486, "Plant_Name": "Sturgeon", "State": "NY", "Zip": "12486", "County": "Ulster", "Latitude": 41.848191, "Longitude": -74.046678, "t_Fuels": "Conventional Hydroelectric", "t_Output": 14.4 }, "geometry": { "type": "Point", "coordinates": [ -74.046678, 41.848191 ] } },
{ "type": "Feature", "properties": { "Name": "West Coxsackie", "description": "<p>\nFuel: Natural Gas Fired Combustion Turbine<br\/>\nNameplate Output: 21.6", "Plant_Code": 2487, "Plant_Name": "West Coxsackie", "State": "NY", "Zip": "12051", "County": "Greene", "Latitude": 42.350889, "Longitude": -73.815798, "t_Fuels": "Natural Gas Fired Combustion Turbine", "t_Output": 21.6 }, "geometry": { "type": "Point", "coordinates": [ -73.815798, 42.350889 ] } },
{ "type": "Feature", "properties": { "Name": "Arthur Kill Generating Station", "description": "<p>\nFuel: Natural Gas Fired Combustion Turbine, Natural Gas Steam Turbine<br\/>\nNameplate Output: 895.5", "Plant_Code": 2490, "Plant_Name": "Arthur Kill Generating Station", "State": "NY", "Zip": "10314", "County": "Richmond", "Latitude": 40.591564, "Longitude": -74.200035, "t_Fuels": "Natural Gas Fired Combustion Turbine, Natural Gas Steam Turbine", "t_Output": 895.5 }, "geometry": { "type": "Point", "coordinates": [ -74.200035, 40.591564 ] } },
{ "type": "Feature", "properties": { "Name": "East River", "description": "<p>\nFuel: Natural Gas Fired Combustion Turbine, Natural Gas Steam Turbine<br\/>\nNameplate Output: 716.2", "Plant_Code": 2493, "Plant_Name": "East River", "State": "NY", "Zip": "10009", "County": "New York", "Latitude": 40.7281, "Longitude": -73.9742, "t_Fuels": "Natural Gas Fired Combustion Turbine, Natural Gas Steam Turbine", "t_Output": 716.2 }, "geometry": { "type": "Point", "coordinates": [ -73.9742, 40.7281 ] } },
{ "type": "Feature", "properties": { "Name": "Gowanus Gas Turbines Generating", "description": "<p>\nFuel: Natural Gas Fired Combustion Turbine, Petroleum Liquids<br\/>\nNameplate Output: 640.0", "Plant_Code": 2494, "Plant_Name": "Gowanus Gas Turbines Generating", "State": "NY", "Zip": "11232", "County": "Kings", "Latitude": 40.6635, "Longitude": -74.0051, "t_Fuels": "Natural Gas Fired Combustion Turbine, Petroleum Liquids", "t_Output": 640.0 }, "geometry": { "type": "Point", "coordinates": [ -74.0051, 40.6635 ] } },
{ "type": "Feature", "properties": { "Name": "Hudson Avenue", "description": "<p>\nFuel: Petroleum Liquids<br\/>\nNameplate Output: 48.9", "Plant_Code": 2496, "Plant_Name": "Hudson Avenue", "State": "NY", "Zip": "11201", "County": "Kings", "Latitude": 40.7052, "Longitude": -73.9807, "t_Fuels": "Petroleum Liquids", "t_Output": 48.9 }, "geometry": { "type": "Point", "coordinates": [ -73.9807, 40.7052 ] } },
{ "type": "Feature", "properties": { "Name": "Indian Point 2", "description": "<p>\nFuel: Nuclear<br\/>\nNameplate Output: 1299.0", "Plant_Code": 2497, "Plant_Name": "Indian Point 2", "State": "NY", "Zip": "10511", "County": "Westchester", "Latitude": 41.270556, "Longitude": -73.9527, "t_Fuels": "Nuclear", "t_Output": 1299.0 }, "geometry": { "type": "Point", "coordinates": [ -73.9527, 41.270556 ] } },
{ "type": "Feature", "properties": { "Name": "Narrows Gas Turbines Generating", "description": "<p>\nFuel: Natural Gas Fired Combustion Turbine<br\/>\nNameplate Output: 352.0", "Plant_Code": 2499, "Plant_Name": "Narrows Gas Turbines Generating", "State": "NY", "Zip": "11232", "County": "Kings", "Latitude": 40.648611, "Longitude": -74.020833, "t_Fuels": "Natural Gas Fired Combustion Turbine", "t_Output": 352.0 }, "geometry": { "type": "Point", "coordinates": [ -74.020833, 40.648611 ] } },
{ "type": "Feature", "properties": { "Name": "Ravenswood", "description": "<p>\nFuel: Natural Gas Fired Combined Cycle, Natural Gas Fired Combustion Turbine, Natural Gas Steam Turbine<br\/>\nNameplate Output: 2600.0", "Plant_Code": 2500, "Plant_Name": "Ravenswood", "State": "NY", "Zip": "11101", "County": "Queens", "Latitude": 40.759167, "Longitude": -73.946111, "t_Fuels": "Natural Gas Fired Combined Cycle, Natural Gas Fired Combustion Turbine, Natural Gas Steam Turbine", "t_Output": 2600.0 }, "geometry": { "type": "Point", "coordinates": [ -73.946111, 40.759167 ] } },
{ "type": "Feature", "properties": { "Name": "59th Street", "description": "<p>\nFuel: Natural Gas Fired Combustion Turbine<br\/>\nNameplate Output: 17.1", "Plant_Code": 2503, "Plant_Name": "59th Street", "State": "NY", "Zip": "10019", "County": "New York", "Latitude": 40.771285, "Longitude": -73.99115, "t_Fuels": "Natural Gas Fired Combustion Turbine", "t_Output": 17.1 }, "geometry": { "type": "Point", "coordinates": [ -73.99115, 40.771285 ] } },
{ "type": "Feature", "properties": { "Name": "74th Street", "description": "<p>\nFuel: Petroleum Liquids<br\/>\nNameplate Output: 37.0", "Plant_Code": 2504, "Plant_Name": "74th Street", "State": "NY", "Zip": "10021", "County": "New York", "Latitude": 40.768, "Longitude": -73.9515, "t_Fuels": "Petroleum Liquids", "t_Output": 37.0 }, "geometry": { "type": "Point", "coordinates": [ -73.9515, 40.768 ] } },
{ "type": "Feature", "properties": { "Name": "E F Barrett", "description": "<p>\nFuel: Natural Gas Fired Combustion Turbine, Natural Gas Steam Turbine<br\/>\nNameplate Output: 669.2", "Plant_Code": 2511, "Plant_Name": "E F Barrett", "State": "NY", "Zip": "11558", "County": "Nassau", "Latitude": 40.616689, "Longitude": -73.647881, "t_Fuels": "Natural Gas Fired Combustion Turbine, Natural Gas Steam Turbine", "t_Output": 669.2 }, "geometry": { "type": "Point", "coordinates": [ -73.647881, 40.616689 ] } },
{ "type": "Feature", "properties": { "Name": "East Hampton", "description": "<p>\nFuel: Petroleum Liquids<br\/>\nNameplate Output: 27.3", "Plant_Code": 2512, "Plant_Name": "East Hampton", "State": "NY", "Zip": "11937", "County": "Suffolk", "Latitude": 40.961706, "Longitude": -72.210277, "t_Fuels": "Petroleum Liquids", "t_Output": 27.3 }, "geometry": { "type": "Point", "coordinates": [ -72.210277, 40.961706 ] } },
{ "type": "Feature", "properties": { "Name": "Glenwood", "description": "<p>\nFuel: Petroleum Liquids<br\/>\nNameplate Output: 110.0", "Plant_Code": 2514, "Plant_Name": "Glenwood", "State": "NY", "Zip": "11547", "County": "Nassau", "Latitude": 40.827149, "Longitude": -73.647473, "t_Fuels": "Petroleum Liquids", "t_Output": 110.0 }, "geometry": { "type": "Point", "coordinates": [ -73.647473, 40.827149 ] } },
{ "type": "Feature", "properties": { "Name": "Northport", "description": "<p>\nFuel: Natural Gas Steam Turbine, Petroleum Liquids<br\/>\nNameplate Output: 1564.0", "Plant_Code": 2516, "Plant_Name": "Northport", "State": "NY", "Zip": "11768", "County": "Suffolk", "Latitude": 40.923565, "Longitude": -73.342323, "t_Fuels": "Natural Gas Steam Turbine, Petroleum Liquids", "t_Output": 1564.0 }, "geometry": { "type": "Point", "coordinates": [ -73.342323, 40.923565 ] } },
{ "type": "Feature", "properties": { "Name": "Port Jefferson", "description": "<p>\nFuel: Natural Gas Fired Combustion Turbine, Natural Gas Steam Turbine, Petroleum Liquids<br\/>\nNameplate Output: 498.0", "Plant_Code": 2517, "Plant_Name": "Port Jefferson", "State": "NY", "Zip": "11776", "County": "Suffolk", "Latitude": 40.949696, "Longitude": -73.078507, "t_Fuels": "Natural Gas Fired Combustion Turbine, Natural Gas Steam Turbine, Petroleum Liquids", "t_Output": 498.0 }, "geometry": { "type": "Point", "coordinates": [ -73.078507, 40.949696 ] } },
{ "type": "Feature", "properties": { "Name": "Shoreham", "description": "<p>\nFuel: Petroleum Liquids<br\/>\nNameplate Output: 71.5", "Plant_Code": 2518, "Plant_Name": "Shoreham", "State": "NY", "Zip": "11972", "County": "Suffolk", "Latitude": 40.96159, "Longitude": -72.864976, "t_Fuels": "Petroleum Liquids", "t_Output": 71.5 }, "geometry": { "type": "Point", "coordinates": [ -72.864976, 40.96159 ] } },
{ "type": "Feature", "properties": { "Name": "South Hampton", "description": "<p>\nFuel: Petroleum Liquids<br\/>\nNameplate Output: 11.5", "Plant_Code": 2519, "Plant_Name": "South Hampton", "State": "NY", "Zip": "11968", "County": "Suffolk", "Latitude": 40.899997, "Longitude": -72.381977, "t_Fuels": "Petroleum Liquids", "t_Output": 11.5 }, "geometry": { "type": "Point", "coordinates": [ -72.381977, 40.899997 ] } },
{ "type": "Feature", "properties": { "Name": "Southold", "description": "<p>\nFuel: Petroleum Liquids<br\/>\nNameplate Output: 14.0", "Plant_Code": 2520, "Plant_Name": "Southold", "State": "NY", "Zip": "11944", "County": "Suffolk", "Latitude": 41.1059, "Longitude": -72.3761, "t_Fuels": "Petroleum Liquids", "t_Output": 14.0 }, "geometry": { "type": "Point", "coordinates": [ -72.3761, 41.1059 ] } },
{ "type": "Feature", "properties": { "Name": "West Babylon", "description": "<p>\nFuel: Petroleum Liquids<br\/>\nNameplate Output: 52.4", "Plant_Code": 2521, "Plant_Name": "West Babylon", "State": "NY", "Zip": "11704", "County": "Suffolk", "Latitude": 40.695485, "Longitude": -73.348573, "t_Fuels": "Petroleum Liquids", "t_Output": 52.4 }, "geometry": { "type": "Point", "coordinates": [ -73.348573, 40.695485 ] } },
{ "type": "Feature", "properties": { "Name": "Cadyville", "description": "<p>\nFuel: Conventional Hydroelectric<br\/>\nNameplate Output: 5.5", "Plant_Code": 2522, "Plant_Name": "Cadyville", "State": "NY", "Zip": "12962", "County": "Clinton", "Latitude": 44.695, "Longitude": -73.6219, "t_Fuels": "Conventional Hydroelectric", "t_Output": 5.5 }, "geometry": { "type": "Point", "coordinates": [ -73.6219, 44.695 ] } },
{ "type": "Feature", "properties": { "Name": "Greenidge Generation LLC", "description": "<p>\nFuel: Conventional Steam Coal<br\/>\nNameplate Output: 112.0", "Plant_Code": 2527, "Plant_Name": "Greenidge Generation LLC", "State": "NY", "Zip": "14441", "County": "Yates", "Latitude": 42.6789, "Longitude": -76.9483, "t_Fuels": "Conventional Steam Coal", "t_Output": 112.0 }, "geometry": { "type": "Point", "coordinates": [ -76.9483, 42.6789 ] } },
{ "type": "Feature", "properties": { "Name": "Harris Lake", "description": "<p>\nFuel: Petroleum Liquids<br\/>\nNameplate Output: 1.7", "Plant_Code": 2528, "Plant_Name": "Harris Lake", "State": "NY", "Zip": "12847", "County": "Essex", "Latitude": 43.9719, "Longitude": -74.1861, "t_Fuels": "Petroleum Liquids", "t_Output": 1.7 }, "geometry": { "type": "Point", "coordinates": [ -74.1861, 43.9719 ] } },
{ "type": "Feature", "properties": { "Name": "High Falls - Saranac NY", "description": "<p>\nFuel: Conventional Hydroelectric<br\/>\nNameplate Output: 15.0", "Plant_Code": 2530, "Plant_Name": "High Falls - Saranac NY", "State": "NY", "Zip": "12981", "County": "Clinton", "Latitude": 44.6389, "Longitude": -73.7492, "t_Fuels": "Conventional Hydroelectric", "t_Output": 15.0 }, "geometry": { "type": "Point", "coordinates": [ -73.7492, 44.6389 ] } },
{ "type": "Feature", "properties": { "Name": "Kent Falls", "description": "<p>\nFuel: Conventional Hydroelectric<br\/>\nNameplate Output: 12.4", "Plant_Code": 2532, "Plant_Name": "Kent Falls", "State": "NY", "Zip": "12962", "County": "Clinton", "Latitude": 44.7053, "Longitude": -73.5967, "t_Fuels": "Conventional Hydroelectric", "t_Output": 12.4 }, "geometry": { "type": "Point", "coordinates": [ -73.5967, 44.7053 ] } },
{ "type": "Feature", "properties": { "Name": "Cayuga Operating Company", "description": "<p>\nFuel: Conventional Steam Coal<br\/>\nNameplate Output: 322.5", "Plant_Code": 2535, "Plant_Name": "Cayuga Operating Company", "State": "NY", "Zip": "14882", "County": "Tompkins", "Latitude": 42.6028, "Longitude": -76.6336, "t_Fuels": "Conventional Steam Coal", "t_Output": 322.5 }, "geometry": { "type": "Point", "coordinates": [ -76.6336, 42.6028 ] } },
{ "type": "Feature", "properties": { "Name": "Bethlehem Energy Center", "description": "<p>\nFuel: Natural Gas Fired Combined Cycle<br\/>\nNameplate Output: 893.1", "Plant_Code": 2539, "Plant_Name": "Bethlehem Energy Center", "State": "NY", "Zip": "12077", "County": "Albany", "Latitude": 42.594196, "Longitude": -73.763752, "t_Fuels": "Natural Gas Fired Combined Cycle", "t_Output": 893.1 }, "geometry": { "type": "Point", "coordinates": [ -73.763752, 42.594196 ] } },
{ "type": "Feature", "properties": { "Name": "Allens Falls", "description": "<p>\nFuel: Conventional Hydroelectric<br\/>\nNameplate Output: 4.0", "Plant_Code": 2540, "Plant_Name": "Allens Falls", "State": "NY", "Zip": "13672", "County": "St Lawrence", "Latitude": 44.660338, "Longitude": -74.860265, "t_Fuels": "Conventional Hydroelectric", "t_Output": 4.0 }, "geometry": { "type": "Point", "coordinates": [ -74.860265, 44.660338 ] } },
{ "type": "Feature", "properties": { "Name": "Beardslee", "description": "<p>\nFuel: Conventional Hydroelectric<br\/>\nNameplate Output: 20.0", "Plant_Code": 2543, "Plant_Name": "Beardslee", "State": "NY", "Zip": "13365", "County": "Herkimer", "Latitude": 43.019113, "Longitude": -74.741349, "t_Fuels": "Conventional Hydroelectric", "t_Output": 20.0 }, "geometry": { "type": "Point", "coordinates": [ -74.741349, 43.019113 ] } },
{ "type": "Feature", "properties": { "Name": "Belfort", "description": "<p>\nFuel: Conventional Hydroelectric<br\/>\nNameplate Output: 2.0", "Plant_Code": 2544, "Plant_Name": "Belfort", "State": "NY", "Zip": "13327", "County": "Lewis", "Latitude": 43.9275, "Longitude": -75.3331, "t_Fuels": "Conventional Hydroelectric", "t_Output": 2.0 }, "geometry": { "type": "Point", "coordinates": [ -75.3331, 43.9275 ] } },
{ "type": "Feature", "properties": { "Name": "Bennetts Bridge", "description": "<p>\nFuel: Conventional Hydroelectric<br\/>\nNameplate Output: 36.0", "Plant_Code": 2545, "Plant_Name": "Bennetts Bridge", "State": "NY", "Zip": "13302", "County": "Oswego", "Latitude": 43.5317, "Longitude": -75.9531, "t_Fuels": "Conventional Hydroelectric", "t_Output": 36.0 }, "geometry": { "type": "Point", "coordinates": [ -75.9531, 43.5317 ] } },
{ "type": "Feature", "properties": { "Name": "Black River", "description": "<p>\nFuel: Conventional Hydroelectric<br\/>\nNameplate Output: 6.0", "Plant_Code": 2546, "Plant_Name": "Black River", "State": "NY", "Zip": "13612", "County": "Jefferson", "Latitude": 44.000122, "Longitude": -75.813151, "t_Fuels": "Conventional Hydroelectric", "t_Output": 6.0 }, "geometry": { "type": "Point", "coordinates": [ -75.813151, 44.000122 ] } },
{ "type": "Feature", "properties": { "Name": "Blake", "description": "<p>\nFuel: Conventional Hydroelectric<br\/>\nNameplate Output: 15.0", "Plant_Code": 2547, "Plant_Name": "Blake", "State": "NY", "Zip": "13672", "County": "St Lawrence", "Latitude": 44.506474, "Longitude": -74.753442, "t_Fuels": "Conventional Hydroelectric", "t_Output": 15.0 }, "geometry": { "type": "Point", "coordinates": [ -74.753442, 44.506474 ] } },
{ "type": "Feature", "properties": { "Name": "Browns Falls", "description": "<p>\nFuel: Conventional Hydroelectric<br\/>\nNameplate Output: 16.0", "Plant_Code": 2548, "Plant_Name": "Browns Falls", "State": "NY", "Zip": "13639", "County": "St Lawrence", "Latitude": 44.211407, "Longitude": -75.059441, "t_Fuels": "Conventional Hydroelectric", "t_Output": 16.0 }, "geometry": { "type": "Point", "coordinates": [ -75.059441, 44.211407 ] } },
{ "type": "Feature", "properties": { "Name": "Chasm", "description": "<p>\nFuel: Conventional Hydroelectric<br\/>\nNameplate Output: 3.0", "Plant_Code": 2550, "Plant_Name": "Chasm", "State": "NY", "Zip": "12953", "County": "Franklin", "Latitude": 44.7533, "Longitude": -74.2169, "t_Fuels": "Conventional Hydroelectric", "t_Output": 3.0 }, "geometry": { "type": "Point", "coordinates": [ -74.2169, 44.7533 ] } },
{ "type": "Feature", "properties": { "Name": "Colton", "description": "<p>\nFuel: Conventional Hydroelectric<br\/>\nNameplate Output: 36.0", "Plant_Code": 2551, "Plant_Name": "Colton", "State": "NY", "Zip": "13625", "County": "St Lawrence", "Latitude": 44.5839, "Longitude": -74.9583, "t_Fuels": "Conventional Hydroelectric", "t_Output": 36.0 }, "geometry": { "type": "Point", "coordinates": [ -74.9583, 44.5839 ] } },
{ "type": "Feature", "properties": { "Name": "Deferiet", "description": "<p>\nFuel: Conventional Hydroelectric<br\/>\nNameplate Output: 12.0", "Plant_Code": 2552, "Plant_Name": "Deferiet", "State": "NY", "Zip": "13628", "County": "Jefferson", "Latitude": 44.0381, "Longitude": -75.6806, "t_Fuels": "Conventional Hydroelectric", "t_Output": 12.0 }, "geometry": { "type": "Point", "coordinates": [ -75.6806, 44.0381 ] } },
{ "type": "Feature", "properties": { "Name": "Dunkirk Generating Plant", "description": "<p>\nFuel: Conventional Steam Coal<br\/>\nNameplate Output: 627.2", "Plant_Code": 2554, "Plant_Name": "Dunkirk Generating Plant", "State": "NY", "Zip": "14048", "County": "Chautauqua", "Latitude": 42.491467, "Longitude": -79.346631, "t_Fuels": "Conventional Steam Coal", "t_Output": 627.2 }, "geometry": { "type": "Point", "coordinates": [ -79.346631, 42.491467 ] } },
{ "type": "Feature", "properties": { "Name": "Eagle", "description": "<p>\nFuel: Conventional Hydroelectric<br\/>\nNameplate Output: 6.0", "Plant_Code": 2555, "Plant_Name": "Eagle", "State": "NY", "Zip": "13327", "County": "Lewis", "Latitude": 43.909714, "Longitude": -75.200831, "t_Fuels": "Conventional Hydroelectric", "t_Output": 6.0 }, "geometry": { "type": "Point", "coordinates": [ -75.200831, 43.909714 ] } },
{ "type": "Feature", "properties": { "Name": "Eel Weir", "description": "<p>\nFuel: Conventional Hydroelectric<br\/>\nNameplate Output: 2.5", "Plant_Code": 2556, "Plant_Name": "Eel Weir", "State": "NY", "Zip": "13670", "County": "St Lawrence", "Latitude": 44.638365, "Longitude": -75.49052, "t_Fuels": "Conventional Hydroelectric", "t_Output": 2.5 }, "geometry": { "type": "Point", "coordinates": [ -75.49052, 44.638365 ] } },
{ "type": "Feature", "properties": { "Name": "Effley", "description": "<p>\nFuel: Conventional Hydroelectric<br\/>\nNameplate Output: 3.0", "Plant_Code": 2557, "Plant_Name": "Effley", "State": "NY", "Zip": "13327", "County": "Lewis", "Latitude": 43.922831, "Longitude": -75.277923, "t_Fuels": "Conventional Hydroelectric", "t_Output": 3.0 }, "geometry": { "type": "Point", "coordinates": [ -75.277923, 43.922831 ] } },
{ "type": "Feature", "properties": { "Name": "Elmer", "description": "<p>\nFuel: Conventional Hydroelectric<br\/>\nNameplate Output: 2.0", "Plant_Code": 2559, "Plant_Name": "Elmer", "State": "NY", "Zip": "13327", "County": "Lewis", "Latitude": 43.927536, "Longitude": -75.288322, "t_Fuels": "Conventional Hydroelectric", "t_Output": 2.0 }, "geometry": { "type": "Point", "coordinates": [ -75.288322, 43.927536 ] } },
{ "type": "Feature", "properties": { "Name": "Ephratah", "description": "<p>\nFuel: Conventional Hydroelectric<br\/>\nNameplate Output: 4.0", "Plant_Code": 2560, "Plant_Name": "Ephratah", "State": "NY", "Zip": "13339", "County": "Fulton", "Latitude": 43.0092, "Longitude": -74.5372, "t_Fuels": "Conventional Hydroelectric", "t_Output": 4.0 }, "geometry": { "type": "Point", "coordinates": [ -74.5372, 43.0092 ] } },
{ "type": "Feature", "properties": { "Name": "East Norfolk", "description": "<p>\nFuel: Conventional Hydroelectric<br\/>\nNameplate Output: 4.0", "Plant_Code": 2561, "Plant_Name": "East Norfolk", "State": "NY", "Zip": "13667", "County": "St Lawrence", "Latitude": 44.7989, "Longitude": -74.9856, "t_Fuels": "Conventional Hydroelectric", "t_Output": 4.0 }, "geometry": { "type": "Point", "coordinates": [ -74.9856, 44.7989 ] } },
{ "type": "Feature", "properties": { "Name": "Five Falls", "description": "<p>\nFuel: Conventional Hydroelectric<br\/>\nNameplate Output: 24.0", "Plant_Code": 2562, "Plant_Name": "Five Falls", "State": "NY", "Zip": "13625", "County": "St Lawrence", "Latitude": 44.527491, "Longitude": -74.849177, "t_Fuels": "Conventional Hydroelectric", "t_Output": 24.0 }, "geometry": { "type": "Point", "coordinates": [ -74.849177, 44.527491 ] } },
{ "type": "Feature", "properties": { "Name": "Flat Rock", "description": "<p>\nFuel: Conventional Hydroelectric<br\/>\nNameplate Output: 5.0", "Plant_Code": 2563, "Plant_Name": "Flat Rock", "State": "NY", "Zip": "13639", "County": "St Lawrence", "Latitude": 44.2217, "Longitude": -75.0742, "t_Fuels": "Conventional Hydroelectric", "t_Output": 5.0 }, "geometry": { "type": "Point", "coordinates": [ -75.0742, 44.2217 ] } },
{ "type": "Feature", "properties": { "Name": "Franklin (NY)", "description": "<p>\nFuel: Conventional Hydroelectric<br\/>\nNameplate Output: 2.0", "Plant_Code": 2564, "Plant_Name": "Franklin (NY)", "State": "NY", "Zip": "12913", "County": "Franklin", "Latitude": 44.4372, "Longitude": -73.9725, "t_Fuels": "Conventional Hydroelectric", "t_Output": 2.0 }, "geometry": { "type": "Point", "coordinates": [ -73.9725, 44.4372 ] } },
{ "type": "Feature", "properties": { "Name": "Fulton Hydro", "description": "<p>\nFuel: Conventional Hydroelectric<br\/>\nNameplate Output: 1.3", "Plant_Code": 2566, "Plant_Name": "Fulton Hydro", "State": "NY", "Zip": "13069", "County": "Oswego", "Latitude": 43.32411, "Longitude": -76.418984, "t_Fuels": "Conventional Hydroelectric", "t_Output": 1.3 }, "geometry": { "type": "Point", "coordinates": [ -76.418984, 43.32411 ] } },
{ "type": "Feature", "properties": { "Name": "Glenwood Hydro", "description": "<p>\nFuel: Conventional Hydroelectric<br\/>\nNameplate Output: 1.5", "Plant_Code": 2568, "Plant_Name": "Glenwood Hydro", "State": "NY", "Zip": "14103", "County": "Orleans", "Latitude": 43.2358, "Longitude": -78.3906, "t_Fuels": "Conventional Hydroelectric", "t_Output": 1.5 }, "geometry": { "type": "Point", "coordinates": [ -78.3906, 43.2358 ] } },
{ "type": "Feature", "properties": { "Name": "Granby", "description": "<p>\nFuel: Conventional Hydroelectric<br\/>\nNameplate Output: 10.0", "Plant_Code": 2569, "Plant_Name": "Granby", "State": "NY", "Zip": "13069", "County": "Oswego", "Latitude": 43.323441, "Longitude": -76.420841, "t_Fuels": "Conventional Hydroelectric", "t_Output": 10.0 }, "geometry": { "type": "Point", "coordinates": [ -76.420841, 43.323441 ] } },
{ "type": "Feature", "properties": { "Name": "Hannawa", "description": "<p>\nFuel: Conventional Hydroelectric<br\/>\nNameplate Output: 8.0", "Plant_Code": 2571, "Plant_Name": "Hannawa", "State": "NY", "Zip": "13647", "County": "St Lawrence", "Latitude": 44.6192, "Longitude": -74.9733, "t_Fuels": "Conventional Hydroelectric", "t_Output": 8.0 }, "geometry": { "type": "Point", "coordinates": [ -74.9733, 44.6192 ] } },
{ "type": "Feature", "properties": { "Name": "Herrings", "description": "<p>\nFuel: Conventional Hydroelectric<br\/>\nNameplate Output: 5.4", "Plant_Code": 2572, "Plant_Name": "Herrings", "State": "NY", "Zip": "13619", "County": "Jefferson", "Latitude": 44.0217, "Longitude": -75.6511, "t_Fuels": "Conventional Hydroelectric", "t_Output": 5.4 }, "geometry": { "type": "Point", "coordinates": [ -75.6511, 44.0217 ] } },
{ "type": "Feature", "properties": { "Name": "Heuvelton", "description": "<p>\nFuel: Conventional Hydroelectric<br\/>\nNameplate Output: 1.0", "Plant_Code": 2573, "Plant_Name": "Heuvelton", "State": "NY", "Zip": "13654", "County": "St Lawrence", "Latitude": 44.6172, "Longitude": -75.4042, "t_Fuels": "Conventional Hydroelectric", "t_Output": 1.0 }, "geometry": { "type": "Point", "coordinates": [ -75.4042, 44.6172 ] } },
{ "type": "Feature", "properties": { "Name": "High Dam", "description": "<p>\nFuel: Conventional Hydroelectric<br\/>\nNameplate Output: 11.9", "Plant_Code": 2574, "Plant_Name": "High Dam", "State": "NY", "Zip": "13126", "County": "Oswego", "Latitude": 43.4436, "Longitude": -76.4961, "t_Fuels": "Conventional Hydroelectric", "t_Output": 11.9 }, "geometry": { "type": "Point", "coordinates": [ -76.4961, 43.4436 ] } },
{ "type": "Feature", "properties": { "Name": "High Falls - Croghan NY", "description": "<p>\nFuel: Conventional Hydroelectric<br\/>\nNameplate Output: 6.0", "Plant_Code": 2575, "Plant_Name": "High Falls - Croghan NY", "State": "NY", "Zip": "13327", "County": "Lewis", "Latitude": 43.9247, "Longitude": -75.3731, "t_Fuels": "Conventional Hydroelectric", "t_Output": 6.0 }, "geometry": { "type": "Point", "coordinates": [ -75.3731, 43.9247 ] } },
{ "type": "Feature", "properties": { "Name": "Higley", "description": "<p>\nFuel: Conventional Hydroelectric<br\/>\nNameplate Output: 6.0", "Plant_Code": 2576, "Plant_Name": "Higley", "State": "NY", "Zip": "13625", "County": "St Lawrence", "Latitude": 44.5306, "Longitude": -74.9331, "t_Fuels": "Conventional Hydroelectric", "t_Output": 6.0 }, "geometry": { "type": "Point", "coordinates": [ -74.9331, 44.5306 ] } },
{ "type": "Feature", "properties": { "Name": "Hydraulic Race", "description": "<p>\nFuel: Conventional Hydroelectric<br\/>\nNameplate Output: 3.0", "Plant_Code": 2578, "Plant_Name": "Hydraulic Race", "State": "NY", "Zip": "14094", "County": "Niagara", "Latitude": 43.170948, "Longitude": -78.691551, "t_Fuels": "Conventional Hydroelectric", "t_Output": 3.0 }, "geometry": { "type": "Point", "coordinates": [ -78.691551, 43.170948 ] } },
{ "type": "Feature", "properties": { "Name": "Inghams", "description": "<p>\nFuel: Conventional Hydroelectric<br\/>\nNameplate Output: 6.0", "Plant_Code": 2579, "Plant_Name": "Inghams", "State": "NY", "Zip": "13329", "County": "Fulton", "Latitude": 43.061017, "Longitude": -74.764347, "t_Fuels": "Conventional Hydroelectric", "t_Output": 6.0 }, "geometry": { "type": "Point", "coordinates": [ -74.764347, 43.061017 ] } },
{ "type": "Feature", "properties": { "Name": "Johnsonville Dam", "description": "<p>\nFuel: Conventional Hydroelectric<br\/>\nNameplate Output: 4.0", "Plant_Code": 2580, "Plant_Name": "Johnsonville Dam", "State": "NY", "Zip": "12094", "County": "Rensselaer", "Latitude": 42.920374, "Longitude": -73.508886, "t_Fuels": "Conventional Hydroelectric", "t_Output": 4.0 }, "geometry": { "type": "Point", "coordinates": [ -73.508886, 42.920374 ] } },
{ "type": "Feature", "properties": { "Name": "Kamargo", "description": "<p>\nFuel: Conventional Hydroelectric<br\/>\nNameplate Output: 6.0", "Plant_Code": 2581, "Plant_Name": "Kamargo", "State": "NY", "Zip": "13612", "County": "Jefferson", "Latitude": 44.0117, "Longitude": -75.7967, "t_Fuels": "Conventional Hydroelectric", "t_Output": 6.0 }, "geometry": { "type": "Point", "coordinates": [ -75.7967, 44.0117 ] } },
{ "type": "Feature", "properties": { "Name": "Lighthouse Hill", "description": "<p>\nFuel: Conventional Hydroelectric<br\/>\nNameplate Output: 8.0", "Plant_Code": 2582, "Plant_Name": "Lighthouse Hill", "State": "NY", "Zip": "13302", "County": "Oswego", "Latitude": 43.524103, "Longitude": -75.970318, "t_Fuels": "Conventional Hydroelectric", "t_Output": 8.0 }, "geometry": { "type": "Point", "coordinates": [ -75.970318, 43.524103 ] } },
{ "type": "Feature", "properties": { "Name": "Macomb", "description": "<p>\nFuel: Conventional Hydroelectric<br\/>\nNameplate Output: 1.0", "Plant_Code": 2583, "Plant_Name": "Macomb", "State": "NY", "Zip": "12953", "County": "Franklin", "Latitude": 44.877326, "Longitude": -74.306288, "t_Fuels": "Conventional Hydroelectric", "t_Output": 1.0 }, "geometry": { "type": "Point", "coordinates": [ -74.306288, 44.877326 ] } },
{ "type": "Feature", "properties": { "Name": "Minetto", "description": "<p>\nFuel: Conventional Hydroelectric<br\/>\nNameplate Output: 10.0", "Plant_Code": 2586, "Plant_Name": "Minetto", "State": "NY", "Zip": "13126", "County": "Oswego", "Latitude": 43.4003, "Longitude": -76.4739, "t_Fuels": "Conventional Hydroelectric", "t_Output": 10.0 }, "geometry": { "type": "Point", "coordinates": [ -76.4739, 43.4003 ] } },
{ "type": "Feature", "properties": { "Name": "Moshier", "description": "<p>\nFuel: Conventional Hydroelectric<br\/>\nNameplate Output: 8.0", "Plant_Code": 2588, "Plant_Name": "Moshier", "State": "NY", "Zip": "13327", "County": "Herkimer", "Latitude": 43.8719, "Longitude": -75.1364, "t_Fuels": "Conventional Hydroelectric", "t_Output": 8.0 }, "geometry": { "type": "Point", "coordinates": [ -75.1364, 43.8719 ] } },
{ "type": "Feature", "properties": { "Name": "Nine Mile Point Nuclear Station", "description": "<p>\nFuel: Nuclear<br\/>\nNameplate Output: 1901.1", "Plant_Code": 2589, "Plant_Name": "Nine Mile Point Nuclear Station", "State": "NY", "Zip": "13093", "County": "Oswego", "Latitude": 43.5211, "Longitude": -76.41, "t_Fuels": "Nuclear", "t_Output": 1901.1 }, "geometry": { "type": "Point", "coordinates": [ -76.41, 43.5211 ] } },
{ "type": "Feature", "properties": { "Name": "Norfolk", "description": "<p>\nFuel: Conventional Hydroelectric<br\/>\nNameplate Output: 5.0", "Plant_Code": 2590, "Plant_Name": "Norfolk", "State": "NY", "Zip": "13667", "County": "St Lawrence", "Latitude": 44.8053, "Longitude": -74.9975, "t_Fuels": "Conventional Hydroelectric", "t_Output": 5.0 }, "geometry": { "type": "Point", "coordinates": [ -74.9975, 44.8053 ] } },
{ "type": "Feature", "properties": { "Name": "Norwood", "description": "<p>\nFuel: Conventional Hydroelectric<br\/>\nNameplate Output: 2.0", "Plant_Code": 2591, "Plant_Name": "Norwood", "State": "NY", "Zip": "13668", "County": "St Lawrence", "Latitude": 44.7439, "Longitude": -75.0042, "t_Fuels": "Conventional Hydroelectric", "t_Output": 2.0 }, "geometry": { "type": "Point", "coordinates": [ -75.0042, 44.7439 ] } },
{ "type": "Feature", "properties": { "Name": "Oswego Harbor Power", "description": "<p>\nFuel: Petroleum Liquids<br\/>\nNameplate Output: 1803.6", "Plant_Code": 2594, "Plant_Name": "Oswego Harbor Power", "State": "NY", "Zip": "13126", "County": "Oswego", "Latitude": 43.4586, "Longitude": -76.5319, "t_Fuels": "Petroleum Liquids", "t_Output": 1803.6 }, "geometry": { "type": "Point", "coordinates": [ -76.5319, 43.4586 ] } },
{ "type": "Feature", "properties": { "Name": "Oswego Falls East", "description": "<p>\nFuel: Conventional Hydroelectric<br\/>\nNameplate Output: 6.0", "Plant_Code": 2595, "Plant_Name": "Oswego Falls East", "State": "NY", "Zip": "13069", "County": "Oswego", "Latitude": 43.3161, "Longitude": -76.4153, "t_Fuels": "Conventional Hydroelectric", "t_Output": 6.0 }, "geometry": { "type": "Point", "coordinates": [ -76.4153, 43.3161 ] } },
{ "type": "Feature", "properties": { "Name": "Oswego Falls West", "description": "<p>\nFuel: Conventional Hydroelectric<br\/>\nNameplate Output: 3.0", "Plant_Code": 2596, "Plant_Name": "Oswego Falls West", "State": "NY", "Zip": "13069", "County": "Oswego", "Latitude": 43.3156, "Longitude": -76.4172, "t_Fuels": "Conventional Hydroelectric", "t_Output": 3.0 }, "geometry": { "type": "Point", "coordinates": [ -76.4172, 43.3156 ] } },
{ "type": "Feature", "properties": { "Name": "Parishville", "description": "<p>\nFuel: Conventional Hydroelectric<br\/>\nNameplate Output: 3.0", "Plant_Code": 2597, "Plant_Name": "Parishville", "State": "NY", "Zip": "13672", "County": "St Lawrence", "Latitude": 44.63, "Longitude": -74.8258, "t_Fuels": "Conventional Hydroelectric", "t_Output": 3.0 }, "geometry": { "type": "Point", "coordinates": [ -74.8258, 44.63 ] } },
{ "type": "Feature", "properties": { "Name": "Piercefield", "description": "<p>\nFuel: Conventional Hydroelectric<br\/>\nNameplate Output: 2.7", "Plant_Code": 2598, "Plant_Name": "Piercefield", "State": "NY", "Zip": "12973", "County": "St Lawrence", "Latitude": 44.233419, "Longitude": -74.566217, "t_Fuels": "Conventional Hydroelectric", "t_Output": 2.7 }, "geometry": { "type": "Point", "coordinates": [ -74.566217, 44.233419 ] } },
{ "type": "Feature", "properties": { "Name": "Prospect", "description": "<p>\nFuel: Conventional Hydroelectric<br\/>\nNameplate Output: 19.0", "Plant_Code": 2599, "Plant_Name": "Prospect", "State": "NY", "Zip": "13435", "County": "Oneida", "Latitude": 43.291861, "Longitude": -75.147734, "t_Fuels": "Conventional Hydroelectric", "t_Output": 19.0 }, "geometry": { "type": "Point", "coordinates": [ -75.147734, 43.291861 ] } },
{ "type": "Feature", "properties": { "Name": "Rainbow Falls Hydro", "description": "<p>\nFuel: Conventional Hydroelectric<br\/>\nNameplate Output: 25.0", "Plant_Code": 2600, "Plant_Name": "Rainbow Falls Hydro", "State": "NY", "Zip": "13672", "County": "St Lawrence", "Latitude": 44.5178, "Longitude": -74.8228, "t_Fuels": "Conventional Hydroelectric", "t_Output": 25.0 }, "geometry": { "type": "Point", "coordinates": [ -74.8228, 44.5178 ] } },
{ "type": "Feature", "properties": { "Name": "Raymondville", "description": "<p>\nFuel: Conventional Hydroelectric<br\/>\nNameplate Output: 2.0", "Plant_Code": 2601, "Plant_Name": "Raymondville", "State": "NY", "Zip": "13667", "County": "St Lawrence", "Latitude": 44.835, "Longitude": -74.9803, "t_Fuels": "Conventional Hydroelectric", "t_Output": 2.0 }, "geometry": { "type": "Point", "coordinates": [ -74.9803, 44.835 ] } },
{ "type": "Feature", "properties": { "Name": "South Edwards", "description": "<p>\nFuel: Conventional Hydroelectric<br\/>\nNameplate Output: 4.0", "Plant_Code": 2604, "Plant_Name": "South Edwards", "State": "NY", "Zip": "13639", "County": "St Lawrence", "Latitude": 44.2678, "Longitude": -75.1961, "t_Fuels": "Conventional Hydroelectric", "t_Output": 4.0 }, "geometry": { "type": "Point", "coordinates": [ -75.1961, 44.2678 ] } },
{ "type": "Feature", "properties": { "Name": "School Street", "description": "<p>\nFuel: Conventional Hydroelectric<br\/>\nNameplate Output: 42.0", "Plant_Code": 2605, "Plant_Name": "School Street", "State": "NY", "Zip": "12047", "County": "Albany", "Latitude": 42.78498, "Longitude": -73.707983, "t_Fuels": "Conventional Hydroelectric", "t_Output": 42.0 }, "geometry": { "type": "Point", "coordinates": [ -73.707983, 42.78498 ] } },
{ "type": "Feature", "properties": { "Name": "Schaghticoke", "description": "<p>\nFuel: Conventional Hydroelectric<br\/>\nNameplate Output: 16.0", "Plant_Code": 2606, "Plant_Name": "Schaghticoke", "State": "NY", "Zip": "12154", "County": "Rensselaer", "Latitude": 42.8992, "Longitude": -73.5989, "t_Fuels": "Conventional Hydroelectric", "t_Output": 16.0 }, "geometry": { "type": "Point", "coordinates": [ -73.5989, 42.8992 ] } },
{ "type": "Feature", "properties": { "Name": "Schuylerville", "description": "<p>\nFuel: Conventional Hydroelectric<br\/>\nNameplate Output: 2.0", "Plant_Code": 2607, "Plant_Name": "Schuylerville", "State": "NY", "Zip": "12871", "County": "Saratoga", "Latitude": 43.096823, "Longitude": -73.582107, "t_Fuels": "Conventional Hydroelectric", "t_Output": 2.0 }, "geometry": { "type": "Point", "coordinates": [ -73.582107, 43.096823 ] } },
{ "type": "Feature", "properties": { "Name": "Sewalls", "description": "<p>\nFuel: Conventional Hydroelectric<br\/>\nNameplate Output: 2.0", "Plant_Code": 2608, "Plant_Name": "Sewalls", "State": "NY", "Zip": "13601", "County": "Jefferson", "Latitude": 43.9775, "Longitude": -75.8942, "t_Fuels": "Conventional Hydroelectric", "t_Output": 2.0 }, "geometry": { "type": "Point", "coordinates": [ -75.8942, 43.9775 ] } },
{ "type": "Feature", "properties": { "Name": "Sherman Island", "description": "<p>\nFuel: Conventional Hydroelectric<br\/>\nNameplate Output: 36.3", "Plant_Code": 2609, "Plant_Name": "Sherman Island", "State": "NY", "Zip": "12804", "County": "Saratoga", "Latitude": 43.2797, "Longitude": -73.7094, "t_Fuels": "Conventional Hydroelectric", "t_Output": 36.3 }, "geometry": { "type": "Point", "coordinates": [ -73.7094, 43.2797 ] } },
{ "type": "Feature", "properties": { "Name": "Soft Maple", "description": "<p>\nFuel: Conventional Hydroelectric<br\/>\nNameplate Output: 16.0", "Plant_Code": 2610, "Plant_Name": "Soft Maple", "State": "NY", "Zip": "13327", "County": "Lewis", "Latitude": 43.9206, "Longitude": -75.2433, "t_Fuels": "Conventional Hydroelectric", "t_Output": 16.0 }, "geometry": { "type": "Point", "coordinates": [ -75.2433, 43.9206 ] } },
{ "type": "Feature", "properties": { "Name": "South Colton", "description": "<p>\nFuel: Conventional Hydroelectric<br\/>\nNameplate Output: 21.0", "Plant_Code": 2611, "Plant_Name": "South Colton", "State": "NY", "Zip": "13625", "County": "St Lawrence", "Latitude": 44.5133, "Longitude": -74.8831, "t_Fuels": "Conventional Hydroelectric", "t_Output": 21.0 }, "geometry": { "type": "Point", "coordinates": [ -74.8831, 44.5133 ] } },
{ "type": "Feature", "properties": { "Name": "Spier Falls", "description": "<p>\nFuel: Conventional Hydroelectric<br\/>\nNameplate Output: 56.0", "Plant_Code": 2612, "Plant_Name": "Spier Falls", "State": "NY", "Zip": "12801", "County": "Saratoga", "Latitude": 43.2339, "Longitude": -73.7556, "t_Fuels": "Conventional Hydroelectric", "t_Output": 56.0 }, "geometry": { "type": "Point", "coordinates": [ -73.7556, 43.2339 ] } },
{ "type": "Feature", "properties": { "Name": "Stark", "description": "<p>\nFuel: Conventional Hydroelectric<br\/>\nNameplate Output: 26.0", "Plant_Code": 2613, "Plant_Name": "Stark", "State": "NY", "Zip": "13625", "County": "St Lawrence", "Latitude": 44.4553, "Longitude": -74.7614, "t_Fuels": "Conventional Hydroelectric", "t_Output": 26.0 }, "geometry": { "type": "Point", "coordinates": [ -74.7614, 44.4553 ] } },
{ "type": "Feature", "properties": { "Name": "Stewarts Bridge", "description": "<p>\nFuel: Conventional Hydroelectric<br\/>\nNameplate Output: 38.5", "Plant_Code": 2614, "Plant_Name": "Stewarts Bridge", "State": "NY", "Zip": "12846", "County": "Saratoga", "Latitude": 43.2978, "Longitude": -73.8853, "t_Fuels": "Conventional Hydroelectric", "t_Output": 38.5 }, "geometry": { "type": "Point", "coordinates": [ -73.8853, 43.2978 ] } },
{ "type": "Feature", "properties": { "Name": "Sugar Island", "description": "<p>\nFuel: Conventional Hydroelectric<br\/>\nNameplate Output: 4.0", "Plant_Code": 2616, "Plant_Name": "Sugar Island", "State": "NY", "Zip": "13676", "County": "St Lawrence", "Latitude": 44.642181, "Longitude": -74.976473, "t_Fuels": "Conventional Hydroelectric", "t_Output": 4.0 }, "geometry": { "type": "Point", "coordinates": [ -74.976473, 44.642181 ] } },
{ "type": "Feature", "properties": { "Name": "Taylorville", "description": "<p>\nFuel: Conventional Hydroelectric<br\/>\nNameplate Output: 4.0", "Plant_Code": 2617, "Plant_Name": "Taylorville", "State": "NY", "Zip": "13327", "County": "Lewis", "Latitude": 43.927002, "Longitude": -75.321877, "t_Fuels": "Conventional Hydroelectric", "t_Output": 4.0 }, "geometry": { "type": "Point", "coordinates": [ -75.321877, 43.927002 ] } },
{ "type": "Feature", "properties": { "Name": "Trenton Falls", "description": "<p>\nFuel: Conventional Hydroelectric<br\/>\nNameplate Output: 21.9", "Plant_Code": 2619, "Plant_Name": "Trenton Falls", "State": "NY", "Zip": "13304", "County": "Oneida", "Latitude": 43.2758, "Longitude": -75.1567, "t_Fuels": "Conventional Hydroelectric", "t_Output": 21.9 }, "geometry": { "type": "Point", "coordinates": [ -75.1567, 43.2758 ] } },
{ "type": "Feature", "properties": { "Name": "Varick", "description": "<p>\nFuel: Conventional Hydroelectric<br\/>\nNameplate Output: 8.0", "Plant_Code": 2621, "Plant_Name": "Varick", "State": "NY", "Zip": "13126", "County": "Oswego", "Latitude": 43.4486, "Longitude": -76.5056, "t_Fuels": "Conventional Hydroelectric", "t_Output": 8.0 }, "geometry": { "type": "Point", "coordinates": [ -76.5056, 43.4486 ] } },
{ "type": "Feature", "properties": { "Name": "Waterport", "description": "<p>\nFuel: Conventional Hydroelectric<br\/>\nNameplate Output: 4.0", "Plant_Code": 2623, "Plant_Name": "Waterport", "State": "NY", "Zip": "14571", "County": "Orleans", "Latitude": 43.3272, "Longitude": -78.2394, "t_Fuels": "Conventional Hydroelectric", "t_Output": 4.0 }, "geometry": { "type": "Point", "coordinates": [ -78.2394, 43.3272 ] } },
{ "type": "Feature", "properties": { "Name": "Yaleville", "description": "<p>\nFuel: Conventional Hydroelectric<br\/>\nNameplate Output: 2.0", "Plant_Code": 2624, "Plant_Name": "Yaleville", "State": "NY", "Zip": "13667", "County": "St Lawrence", "Latitude": 44.7661, "Longitude": -74.9997, "t_Fuels": "Conventional Hydroelectric", "t_Output": 2.0 }, "geometry": { "type": "Point", "coordinates": [ -74.9997, 44.7661 ] } },
{ "type": "Feature", "properties": { "Name": "Bowline Point", "description": "<p>\nFuel: Natural Gas Steam Turbine<br\/>\nNameplate Output: 1242.0", "Plant_Code": 2625, "Plant_Name": "Bowline Point", "State": "NY", "Zip": "10993", "County": "Rockland", "Latitude": 41.2044, "Longitude": -73.9689, "t_Fuels": "Natural Gas Steam Turbine", "t_Output": 1242.0 }, "geometry": { "type": "Point", "coordinates": [ -73.9689, 41.2044 ] } },
{ "type": "Feature", "properties": { "Name": "Grahamsville", "description": "<p>\nFuel: Conventional Hydroelectric<br\/>\nNameplate Output: 18.0", "Plant_Code": 2627, "Plant_Name": "Grahamsville", "State": "NY", "Zip": "12740", "County": "Sullivan", "Latitude": 41.8592, "Longitude": -74.5106, "t_Fuels": "Conventional Hydroelectric", "t_Output": 18.0 }, "geometry": { "type": "Point", "coordinates": [ -74.5106, 41.8592 ] } },
{ "type": "Feature", "properties": { "Name": "Hillburn", "description": "<p>\nFuel: Natural Gas Fired Combustion Turbine<br\/>\nNameplate Output: 46.5", "Plant_Code": 2628, "Plant_Name": "Hillburn", "State": "NY", "Zip": "10931", "County": "Rockland", "Latitude": 41.1269, "Longitude": -74.1653, "t_Fuels": "Natural Gas Fired Combustion Turbine", "t_Output": 46.5 }, "geometry": { "type": "Point", "coordinates": [ -74.1653, 41.1269 ] } },
{ "type": "Feature", "properties": { "Name": "Mongaup", "description": "<p>\nFuel: Conventional Hydroelectric<br\/>\nNameplate Output: 4.0", "Plant_Code": 2630, "Plant_Name": "Mongaup", "State": "NY", "Zip": "12777", "County": "Sullivan", "Latitude": 41.537722, "Longitude": -74.771383, "t_Fuels": "Conventional Hydroelectric", "t_Output": 4.0 }, "geometry": { "type": "Point", "coordinates": [ -74.771383, 41.537722 ] } },
{ "type": "Feature", "properties": { "Name": "Rio", "description": "<p>\nFuel: Conventional Hydroelectric<br\/>\nNameplate Output: 10.8", "Plant_Code": 2631, "Plant_Name": "Rio", "State": "NY", "Zip": "12780", "County": "Sullivan", "Latitude": 41.4625, "Longitude": -74.7578, "t_Fuels": "Conventional Hydroelectric", "t_Output": 10.8 }, "geometry": { "type": "Point", "coordinates": [ -74.7578, 41.4625 ] } },
{ "type": "Feature", "properties": { "Name": "Shoemaker", "description": "<p>\nFuel: Natural Gas Fired Combustion Turbine<br\/>\nNameplate Output: 41.9", "Plant_Code": 2632, "Plant_Name": "Shoemaker", "State": "NY", "Zip": "10940", "County": "Orange", "Latitude": 41.4278, "Longitude": -74.4186, "t_Fuels": "Natural Gas Fired Combustion Turbine", "t_Output": 41.9 }, "geometry": { "type": "Point", "coordinates": [ -74.4186, 41.4278 ] } },
{ "type": "Feature", "properties": { "Name": "Swinging Bridge 2", "description": "<p>\nFuel: Conventional Hydroelectric<br\/>\nNameplate Output: 6.8", "Plant_Code": 2634, "Plant_Name": "Swinging Bridge 2", "State": "NY", "Zip": "12777", "County": "Sullivan", "Latitude": 41.5717, "Longitude": -74.7828, "t_Fuels": "Conventional Hydroelectric", "t_Output": 6.8 }, "geometry": { "type": "Point", "coordinates": [ -74.7828, 41.5717 ] } },
{ "type": "Feature", "properties": { "Name": "Rochester 26", "description": "<p>\nFuel: Conventional Hydroelectric<br\/>\nNameplate Output: 3.0", "Plant_Code": 2638, "Plant_Name": "Rochester 26", "State": "NY", "Zip": "14604", "County": "Monroe", "Latitude": 43.1522, "Longitude": -77.6098, "t_Fuels": "Conventional Hydroelectric", "t_Output": 3.0 }, "geometry": { "type": "Point", "coordinates": [ -77.6098, 43.1522 ] } },
{ "type": "Feature", "properties": { "Name": "Rochester 2", "description": "<p>\nFuel: Conventional Hydroelectric<br\/>\nNameplate Output: 8.5", "Plant_Code": 2639, "Plant_Name": "Rochester 2", "State": "NY", "Zip": "14614", "County": "Monroe", "Latitude": 43.1611, "Longitude": -77.615, "t_Fuels": "Conventional Hydroelectric", "t_Output": 8.5 }, "geometry": { "type": "Point", "coordinates": [ -77.615, 43.1611 ] } },
{ "type": "Feature", "properties": { "Name": "Rochester 5", "description": "<p>\nFuel: Conventional Hydroelectric<br\/>\nNameplate Output: 43.6", "Plant_Code": 2641, "Plant_Name": "Rochester 5", "State": "NY", "Zip": "14621", "County": "Monroe", "Latitude": 43.1803, "Longitude": -77.6278, "t_Fuels": "Conventional Hydroelectric", "t_Output": 43.6 }, "geometry": { "type": "Point", "coordinates": [ -77.6278, 43.1803 ] } },
{ "type": "Feature", "properties": { "Name": "Wiscoy 170", "description": "<p>\nFuel: Conventional Hydroelectric<br\/>\nNameplate Output: 1.0", "Plant_Code": 2646, "Plant_Name": "Wiscoy 170", "State": "NY", "Zip": "14735", "County": "Allegany", "Latitude": 42.5042, "Longitude": -78.0828, "t_Fuels": "Conventional Hydroelectric", "t_Output": 1.0 }, "geometry": { "type": "Point", "coordinates": [ -78.0828, 42.5042 ] } },
{ "type": "Feature", "properties": { "Name": "Plant No 1 Freeport", "description": "<p>\nFuel: Petroleum Liquids<br\/>\nNameplate Output: 11.1", "Plant_Code": 2678, "Plant_Name": "Plant No 1 Freeport", "State": "NY", "Zip": "11520", "County": "Nassau", "Latitude": 40.6561, "Longitude": -73.5922, "t_Fuels": "Petroleum Liquids", "t_Output": 11.1 }, "geometry": { "type": "Point", "coordinates": [ -73.5922, 40.6561 ] } },
{ "type": "Feature", "properties": { "Name": "Plant No 2 Freeport", "description": "<p>\nFuel: Natural Gas Fired Combustion Turbine, Petroleum Liquids<br\/>\nNameplate Output: 78.6", "Plant_Code": 2679, "Plant_Name": "Plant No 2 Freeport", "State": "NY", "Zip": "11520", "County": "Nassau", "Latitude": 40.6447, "Longitude": -73.5683, "t_Fuels": "Natural Gas Fired Combustion Turbine, Petroleum Liquids", "t_Output": 78.6 }, "geometry": { "type": "Point", "coordinates": [ -73.5683, 40.6447 ] } },
{ "type": "Feature", "properties": { "Name": "Greenport", "description": "<p>\nFuel: Petroleum Liquids<br\/>\nNameplate Output: 10.1", "Plant_Code": 2681, "Plant_Name": "Greenport", "State": "NY", "Zip": "11944", "County": "Suffolk", "Latitude": 41.1055, "Longitude": -72.3758, "t_Fuels": "Petroleum Liquids", "t_Output": 10.1 }, "geometry": { "type": "Point", "coordinates": [ -72.3758, 41.1055 ] } },
{ "type": "Feature", "properties": { "Name": "S A Carlson", "description": "<p>\nFuel: Natural Gas Fired Combustion Turbine, Natural Gas Steam Turbine<br\/>\nNameplate Output: 96.3", "Plant_Code": 2682, "Plant_Name": "S A Carlson", "State": "NY", "Zip": "14702", "County": "Chautauqua", "Latitude": 42.0933, "Longitude": -79.2478, "t_Fuels": "Natural Gas Fired Combustion Turbine, Natural Gas Steam Turbine", "t_Output": 96.3 }, "geometry": { "type": "Point", "coordinates": [ -79.2478, 42.0933 ] } },
{ "type": "Feature", "properties": { "Name": "Crescent", "description": "<p>\nFuel: Conventional Hydroelectric<br\/>\nNameplate Output: 11.6", "Plant_Code": 2685, "Plant_Name": "Crescent", "State": "NY", "Zip": "12047", "County": "Albany", "Latitude": 42.8056, "Longitude": -73.72264, "t_Fuels": "Conventional Hydroelectric", "t_Output": 11.6 }, "geometry": { "type": "Point", "coordinates": [ -73.72264, 42.8056 ] } },
{ "type": "Feature", "properties": { "Name": "Vischer Ferry", "description": "<p>\nFuel: Conventional Hydroelectric<br\/>\nNameplate Output: 11.6", "Plant_Code": 2686, "Plant_Name": "Vischer Ferry", "State": "NY", "Zip": "12148", "County": "Saratoga", "Latitude": 42.80746, "Longitude": -73.84269, "t_Fuels": "Conventional Hydroelectric", "t_Output": 11.6 }, "geometry": { "type": "Point", "coordinates": [ -73.84269, 42.80746 ] } },
{ "type": "Feature", "properties": { "Name": "Blenheim Gilboa", "description": "<p>\nFuel: Hydroelectric Pumped Storage<br\/>\nNameplate Output: 1000.0", "Plant_Code": 2691, "Plant_Name": "Blenheim Gilboa", "State": "NY", "Zip": "12076", "County": "Schoharie", "Latitude": 42.4423, "Longitude": -74.4479, "t_Fuels": "Hydroelectric Pumped Storage", "t_Output": 1000.0 }, "geometry": { "type": "Point", "coordinates": [ -74.4479, 42.4423 ] } },
{ "type": "Feature", "properties": { "Name": "Lewiston Niagara", "description": "<p>\nFuel: Hydroelectric Pumped Storage<br\/>\nNameplate Output: 240.0", "Plant_Code": 2692, "Plant_Name": "Lewiston Niagara", "State": "NY", "Zip": "14092", "County": "Niagara", "Latitude": 43.142973, "Longitude": -79.021958, "t_Fuels": "Hydroelectric Pumped Storage", "t_Output": 240.0 }, "geometry": { "type": "Point", "coordinates": [ -79.021958, 43.142973 ] } },
{ "type": "Feature", "properties": { "Name": "Robert Moses Niagara", "description": "<p>\nFuel: Conventional Hydroelectric<br\/>\nNameplate Output: 2429.1", "Plant_Code": 2693, "Plant_Name": "Robert Moses Niagara", "State": "NY", "Zip": "14092", "County": "Niagara", "Latitude": 43.1427, "Longitude": -79.0394, "t_Fuels": "Conventional Hydroelectric", "t_Output": 2429.1 }, "geometry": { "type": "Point", "coordinates": [ -79.0394, 43.1427 ] } },
{ "type": "Feature", "properties": { "Name": "Robert Moses Power Dam", "description": "<p>\nFuel: Conventional Hydroelectric<br\/>\nNameplate Output: 912.0", "Plant_Code": 2694, "Plant_Name": "Robert Moses Power Dam", "State": "NY", "Zip": "13662", "County": "St Lawrence", "Latitude": 45.0038, "Longitude": -74.7994, "t_Fuels": "Conventional Hydroelectric", "t_Output": 912.0 }, "geometry": { "type": "Point", "coordinates": [ -74.7994, 45.0038 ] } },
{ "type": "Feature", "properties": { "Name": "Charles P Keller", "description": "<p>\nFuel: Natural Gas Internal Combustion Engine, Petroleum Liquids<br\/>\nNameplate Output: 33.8", "Plant_Code": 2695, "Plant_Name": "Charles P Keller", "State": "NY", "Zip": "11571", "County": "Nassau", "Latitude": 40.658333, "Longitude": -73.640556, "t_Fuels": "Natural Gas Internal Combustion Engine, Petroleum Liquids", "t_Output": 33.8 }, "geometry": { "type": "Point", "coordinates": [ -73.640556, 40.658333 ] } },
{ "type": "Feature", "properties": { "Name": "Watertown", "description": "<p>\nFuel: Conventional Hydroelectric<br\/>\nNameplate Output: 8.1", "Plant_Code": 2700, "Plant_Name": "Watertown", "State": "NY", "Zip": "13601", "County": "Jefferson", "Latitude": 43.975801, "Longitude": -75.874669, "t_Fuels": "Conventional Hydroelectric", "t_Output": 8.1 }, "geometry": { "type": "Point", "coordinates": [ -75.874669, 43.975801 ] } },
{ "type": "Feature", "properties": { "Name": "Somerset Operating Co LLC", "description": "<p>\nFuel: Conventional Steam Coal<br\/>\nNameplate Output: 655.1", "Plant_Code": 6082, "Plant_Name": "Somerset Operating Co LLC", "State": "NY", "Zip": "14012", "County": "Niagara", "Latitude": 43.358889, "Longitude": -78.604722, "t_Fuels": "Conventional Steam Coal", "t_Output": 655.1 }, "geometry": { "type": "Point", "coordinates": [ -78.604722, 43.358889 ] } },
{ "type": "Feature", "properties": { "Name": "James A Fitzpatrick", "description": "<p>\nFuel: Nuclear<br\/>\nNameplate Output: 882.0", "Plant_Code": 6110, "Plant_Name": "James A Fitzpatrick", "State": "NY", "Zip": "13093", "County": "Oswego", "Latitude": 43.52139, "Longitude": -76.408394, "t_Fuels": "Nuclear", "t_Output": 882.0 }, "geometry": { "type": "Point", "coordinates": [ -76.408394, 43.52139 ] } },
{ "type": "Feature", "properties": { "Name": "R E Ginna Nuclear Power Plant", "description": "<p>\nFuel: Nuclear<br\/>\nNameplate Output: 614.0", "Plant_Code": 6122, "Plant_Name": "R E Ginna Nuclear Power Plant", "State": "NY", "Zip": "14519", "County": "Wayne", "Latitude": 43.2777, "Longitude": -77.3099, "t_Fuels": "Nuclear", "t_Output": 614.0 }, "geometry": { "type": "Point", "coordinates": [ -77.3099, 43.2777 ] } },
{ "type": "Feature", "properties": { "Name": "Carver Falls", "description": "<p>\nFuel: Conventional Hydroelectric<br\/>\nNameplate Output: 1.9", "Plant_Code": 6456, "Plant_Name": "Carver Falls", "State": "NY", "Zip": "12887", "County": "Washington", "Latitude": 43.6262, "Longitude": -73.3073, "t_Fuels": "Conventional Hydroelectric", "t_Output": 1.9 }, "geometry": { "type": "Point", "coordinates": [ -73.3073, 43.6262 ] } },
{ "type": "Feature", "properties": { "Name": "Mill C", "description": "<p>\nFuel: Conventional Hydroelectric<br\/>\nNameplate Output: 6.0", "Plant_Code": 6486, "Plant_Name": "Mill C", "State": "NY", "Zip": "12901", "County": "Clinton", "Latitude": 44.6967, "Longitude": -73.6122, "t_Fuels": "Conventional Hydroelectric", "t_Output": 6.0 }, "geometry": { "type": "Point", "coordinates": [ -73.6122, 44.6967 ] } },
{ "type": "Feature", "properties": { "Name": "Rainbow Falls Auscble", "description": "<p>\nFuel: Conventional Hydroelectric<br\/>\nNameplate Output: 2.6", "Plant_Code": 6526, "Plant_Name": "Rainbow Falls Auscble", "State": "NY", "Zip": "12911", "County": "Clinton", "Latitude": 44.5236, "Longitude": -73.4617, "t_Fuels": "Conventional Hydroelectric", "t_Output": 2.6 }, "geometry": { "type": "Point", "coordinates": [ -73.4617, 44.5236 ] } },
{ "type": "Feature", "properties": { "Name": "E J West", "description": "<p>\nFuel: Conventional Hydroelectric<br\/>\nNameplate Output: 22.0", "Plant_Code": 6527, "Plant_Name": "E J West", "State": "NY", "Zip": "12846", "County": "Saratoga", "Latitude": 43.318906, "Longitude": -73.920785, "t_Fuels": "Conventional Hydroelectric", "t_Output": 22.0 }, "geometry": { "type": "Point", "coordinates": [ -73.920785, 43.318906 ] } },
{ "type": "Feature", "properties": { "Name": "Wading River", "description": "<p>\nFuel: Petroleum Liquids<br\/>\nNameplate Output: 238.5", "Plant_Code": 7146, "Plant_Name": "Wading River", "State": "NY", "Zip": "11786", "County": "Suffolk", "Latitude": 40.956932, "Longitude": -72.877411, "t_Fuels": "Petroleum Liquids", "t_Output": 238.5 }, "geometry": { "type": "Point", "coordinates": [ -72.877411, 40.956932 ] } },
{ "type": "Feature", "properties": { "Name": "Richard M Flynn", "description": "<p>\nFuel: Natural Gas Fired Combined Cycle<br\/>\nNameplate Output: 164.0", "Plant_Code": 7314, "Plant_Name": "Richard M Flynn", "State": "NY", "Zip": "11742", "County": "Suffolk", "Latitude": 40.8158, "Longitude": -73.064, "t_Fuels": "Natural Gas Fired Combined Cycle", "t_Output": 164.0 }, "geometry": { "type": "Point", "coordinates": [ -73.064, 40.8158 ] } },
{ "type": "Feature", "properties": { "Name": "Talcville", "description": "<p>\nFuel: Conventional Hydroelectric<br\/>\nNameplate Output: 1.1", "Plant_Code": 7583, "Plant_Name": "Talcville", "State": "NY", "Zip": "13635", "County": "St Lawrence", "Latitude": 44.3083, "Longitude": -75.3083, "t_Fuels": "Conventional Hydroelectric", "t_Output": 1.1 }, "geometry": { "type": "Point", "coordinates": [ -75.3083, 44.3083 ] } },
{ "type": "Feature", "properties": { "Name": "Allegany Cogen", "description": "<p>\nFuel: Natural Gas Fired Combined Cycle<br\/>\nNameplate Output: 67.0", "Plant_Code": 7784, "Plant_Name": "Allegany Cogen", "State": "NY", "Zip": "14735", "County": "Allegany", "Latitude": 42.5027, "Longitude": -78.0686, "t_Fuels": "Natural Gas Fired Combined Cycle", "t_Output": 67.0 }, "geometry": { "type": "Point", "coordinates": [ -78.0686, 42.5027 ] } },
{ "type": "Feature", "properties": { "Name": "Glenwood Landing", "description": "<p>\nFuel: Natural Gas Fired Combustion Turbine, Petroleum Liquids<br\/>\nNameplate Output: 122.0", "Plant_Code": 7869, "Plant_Name": "Glenwood Landing", "State": "NY", "Zip": "11547", "County": "Nassau", "Latitude": 40.8275, "Longitude": -73.6478, "t_Fuels": "Natural Gas Fired Combustion Turbine, Petroleum Liquids", "t_Output": 122.0 }, "geometry": { "type": "Point", "coordinates": [ -73.6478, 40.8275 ] } },
{ "type": "Feature", "properties": { "Name": "Vernon Boulevard", "description": "<p>\nFuel: Natural Gas Fired Combustion Turbine<br\/>\nNameplate Output: 94.0", "Plant_Code": 7909, "Plant_Name": "Vernon Boulevard", "State": "NY", "Zip": "11427", "County": "Queens", "Latitude": 40.7537, "Longitude": -73.9508, "t_Fuels": "Natural Gas Fired Combustion Turbine", "t_Output": 94.0 }, "geometry": { "type": "Point", "coordinates": [ -73.9508, 40.7537 ] } },
{ "type": "Feature", "properties": { "Name": "Joseph J Seymour Power Project", "description": "<p>\nFuel: Natural Gas Fired Combustion Turbine<br\/>\nNameplate Output: 94.0", "Plant_Code": 7910, "Plant_Name": "Joseph J Seymour Power Project", "State": "NY", "Zip": "11232", "County": "Kings", "Latitude": 40.6631, "Longitude": -74.0, "t_Fuels": "Natural Gas Fired Combustion Turbine", "t_Output": 94.0 }, "geometry": { "type": "Point", "coordinates": [ -74.0, 40.6631 ] } },
{ "type": "Feature", "properties": { "Name": "Brentwood", "description": "<p>\nFuel: Natural Gas Fired Combustion Turbine<br\/>\nNameplate Output: 47.0", "Plant_Code": 7912, "Plant_Name": "Brentwood", "State": "NY", "Zip": "11717", "County": "Suffolk", "Latitude": 40.787062, "Longitude": -73.293412, "t_Fuels": "Natural Gas Fired Combustion Turbine", "t_Output": 47.0 }, "geometry": { "type": "Point", "coordinates": [ -73.293412, 40.787062 ] } },
{ "type": "Feature", "properties": { "Name": "Hell Gate", "description": "<p>\nFuel: Natural Gas Fired Combustion Turbine<br\/>\nNameplate Output: 94.0", "Plant_Code": 7913, "Plant_Name": "Hell Gate", "State": "NY", "Zip": "10454", "County": "Bronx", "Latitude": 40.799, "Longitude": -73.9094, "t_Fuels": "Natural Gas Fired Combustion Turbine", "t_Output": 94.0 }, "geometry": { "type": "Point", "coordinates": [ -73.9094, 40.799 ] } },
{ "type": "Feature", "properties": { "Name": "Harlem River Yard", "description": "<p>\nFuel: Natural Gas Fired Combustion Turbine<br\/>\nNameplate Output: 94.0", "Plant_Code": 7914, "Plant_Name": "Harlem River Yard", "State": "NY", "Zip": "10454", "County": "Bronx", "Latitude": 40.7991, "Longitude": -73.9156, "t_Fuels": "Natural Gas Fired Combustion Turbine", "t_Output": 94.0 }, "geometry": { "type": "Point", "coordinates": [ -73.9156, 40.7991 ] } },
{ "type": "Feature", "properties": { "Name": "North 1st", "description": "<p>\nFuel: Natural Gas Fired Combustion Turbine<br\/>\nNameplate Output: 47.0", "Plant_Code": 7915, "Plant_Name": "North 1st", "State": "NY", "Zip": "11211", "County": "Kings", "Latitude": 40.7171, "Longitude": -73.9664, "t_Fuels": "Natural Gas Fired Combustion Turbine", "t_Output": 47.0 }, "geometry": { "type": "Point", "coordinates": [ -73.9664, 40.7171 ] } },
{ "type": "Feature", "properties": { "Name": "Roseton Generating Facility", "description": "<p>\nFuel: Natural Gas Steam Turbine<br\/>\nNameplate Output: 1242.0", "Plant_Code": 8006, "Plant_Name": "Roseton Generating Facility", "State": "NY", "Zip": "12550", "County": "Orange", "Latitude": 41.573783, "Longitude": -73.966269, "t_Fuels": "Natural Gas Steam Turbine", "t_Output": 1242.0 }, "geometry": { "type": "Point", "coordinates": [ -73.966269, 41.573783 ] } },
{ "type": "Feature", "properties": { "Name": "Holtsville", "description": "<p>\nFuel: Petroleum Liquids<br\/>\nNameplate Output: 567.0", "Plant_Code": 8007, "Plant_Name": "Holtsville", "State": "NY", "Zip": "11742", "County": "Suffolk", "Latitude": 40.817037, "Longitude": -73.066265, "t_Fuels": "Petroleum Liquids", "t_Output": 567.0 }, "geometry": { "type": "Point", "coordinates": [ -73.066265, 40.817037 ] } },
{ "type": "Feature", "properties": { "Name": "Auburn State Street", "description": "<p>\nFuel: Natural Gas Fired Combustion Turbine<br\/>\nNameplate Output: 7.0", "Plant_Code": 8009, "Plant_Name": "Auburn State Street", "State": "NY", "Zip": "13021", "County": "Cayuga", "Latitude": 42.9278, "Longitude": -76.5921, "t_Fuels": "Natural Gas Fired Combustion Turbine", "t_Output": 7.0 }, "geometry": { "type": "Point", "coordinates": [ -76.5921, 42.9278 ] } },
{ "type": "Feature", "properties": { "Name": "Pouch", "description": "<p>\nFuel: Natural Gas Fired Combustion Turbine<br\/>\nNameplate Output: 47.0", "Plant_Code": 8053, "Plant_Name": "Pouch", "State": "NY", "Zip": "10305", "County": "Richmond", "Latitude": 40.6182, "Longitude": -74.06849, "t_Fuels": "Natural Gas Fired Combustion Turbine", "t_Output": 47.0 }, "geometry": { "type": "Point", "coordinates": [ -74.06849, 40.6182 ] } },
{ "type": "Feature", "properties": { "Name": "Astoria Generating Station", "description": "<p>\nFuel: Natural Gas Fired Combustion Turbine, Natural Gas Steam Turbine<br\/>\nNameplate Output: 1345.0", "Plant_Code": 8906, "Plant_Name": "Astoria Generating Station", "State": "NY", "Zip": "11105", "County": "Queens", "Latitude": 40.787674, "Longitude": -73.912561, "t_Fuels": "Natural Gas Fired Combustion Turbine, Natural Gas Steam Turbine", "t_Output": 1345.0 }, "geometry": { "type": "Point", "coordinates": [ -73.912561, 40.787674 ] } },
{ "type": "Feature", "properties": { "Name": "Indian Point 3", "description": "<p>\nFuel: Nuclear<br\/>\nNameplate Output: 1012.0", "Plant_Code": 8907, "Plant_Name": "Indian Point 3", "State": "NY", "Zip": "10511", "County": "Westchester", "Latitude": 41.2706, "Longitude": -73.9526, "t_Fuels": "Nuclear", "t_Output": 1012.0 }, "geometry": { "type": "Point", "coordinates": [ -73.9526, 41.2706 ] } },
{ "type": "Feature", "properties": { "Name": "RED-Rochester, LLC", "description": "<p>\nFuel: Conventional Hydroelectric, Conventional Steam Coal<br\/>\nNameplate Output: 133.3", "Plant_Code": 10025, "Plant_Name": "RED-Rochester, LLC", "State": "NY", "Zip": "14615", "County": "Monroe", "Latitude": 43.1989, "Longitude": -77.6319, "t_Fuels": "Conventional Hydroelectric, Conventional Steam Coal", "t_Output": 133.3 }, "geometry": { "type": "Point", "coordinates": [ -77.6319, 43.1989 ] } },
{ "type": "Feature", "properties": { "Name": "Hampshire Paper", "description": "<p>\nFuel: Conventional Hydroelectric<br\/>\nNameplate Output: 3.4", "Plant_Code": 10116, "Plant_Name": "Hampshire Paper", "State": "NY", "Zip": "13642", "County": "St Lawrence", "Latitude": 44.296544, "Longitude": -75.36645, "t_Fuels": "Conventional Hydroelectric", "t_Output": 3.4 }, "geometry": { "type": "Point", "coordinates": [ -75.36645, 44.296544 ] } },
{ "type": "Feature", "properties": { "Name": "Hollow Dam Power Partnership", "description": "<p>\nFuel: Conventional Hydroelectric<br\/>\nNameplate Output: 1.0", "Plant_Code": 10124, "Plant_Name": "Hollow Dam Power Partnership", "State": "NY", "Zip": "13642", "County": "St Lawrence", "Latitude": 44.296453, "Longitude": -75.336142, "t_Fuels": "Conventional Hydroelectric", "t_Output": 1.0 }, "geometry": { "type": "Point", "coordinates": [ -75.336142, 44.296453 ] } },
{ "type": "Feature", "properties": { "Name": "Castleton Energy Center", "description": "<p>\nFuel: Natural Gas Fired Combined Cycle<br\/>\nNameplate Output: 72.0", "Plant_Code": 10190, "Plant_Name": "Castleton Energy Center", "State": "NY", "Zip": "12033", "County": "Rensselaer", "Latitude": 42.5375, "Longitude": -73.7433, "t_Fuels": "Natural Gas Fired Combined Cycle", "t_Output": 72.0 }, "geometry": { "type": "Point", "coordinates": [ -73.7433, 42.5375 ] } },
{ "type": "Feature", "properties": { "Name": "Moose River", "description": "<p>\nFuel: Conventional Hydroelectric<br\/>\nNameplate Output: 12.6", "Plant_Code": 10196, "Plant_Name": "Moose River", "State": "NY", "Zip": "13368", "County": "Lewis", "Latitude": 43.610664, "Longitude": -75.341325, "t_Fuels": "Conventional Hydroelectric", "t_Output": 12.6 }, "geometry": { "type": "Point", "coordinates": [ -75.341325, 43.610664 ] } },
{ "type": "Feature", "properties": { "Name": "Philadlephia", "description": "<p>\nFuel: Conventional Hydroelectric<br\/>\nNameplate Output: 3.6", "Plant_Code": 10197, "Plant_Name": "Philadlephia", "State": "NY", "Zip": "13673", "County": "Jefferson", "Latitude": 44.158611, "Longitude": -75.708778, "t_Fuels": "Conventional Hydroelectric", "t_Output": 3.6 }, "geometry": { "type": "Point", "coordinates": [ -75.708778, 44.158611 ] } },
{ "type": "Feature", "properties": { "Name": "Lower Saranac Hydroelectric Facility", "description": "<p>\nFuel: Conventional Hydroelectric<br\/>\nNameplate Output: 6.7", "Plant_Code": 10214, "Plant_Name": "Lower Saranac Hydroelectric Facility", "State": "NY", "Zip": "12901", "County": "Clinton", "Latitude": 44.6694, "Longitude": -73.5075, "t_Fuels": "Conventional Hydroelectric", "t_Output": 6.7 }, "geometry": { "type": "Point", "coordinates": [ -73.5075, 44.6694 ] } },
{ "type": "Feature", "properties": { "Name": "Warrensburg Hydroelectric", "description": "<p>\nFuel: Conventional Hydroelectric<br\/>\nNameplate Output: 2.9", "Plant_Code": 10218, "Plant_Name": "Warrensburg Hydroelectric", "State": "NY", "Zip": "12885", "County": "Warren", "Latitude": 43.4833, "Longitude": -73.7986, "t_Fuels": "Conventional Hydroelectric", "t_Output": 2.9 }, "geometry": { "type": "Point", "coordinates": [ -73.7986, 43.4833 ] } },
{ "type": "Feature", "properties": { "Name": "Middle Falls Hydro", "description": "<p>\nFuel: Conventional Hydroelectric<br\/>\nNameplate Output: 2.2", "Plant_Code": 10219, "Plant_Name": "Middle Falls Hydro", "State": "NY", "Zip": "12848", "County": "Washington", "Latitude": 43.098711, "Longitude": -73.525271, "t_Fuels": "Conventional Hydroelectric", "t_Output": 2.2 }, "geometry": { "type": "Point", "coordinates": [ -73.525271, 43.098711 ] } },
{ "type": "Feature", "properties": { "Name": "Sissonville Hydro", "description": "<p>\nFuel: Conventional Hydroelectric<br\/>\nNameplate Output: 3.0", "Plant_Code": 10220, "Plant_Name": "Sissonville Hydro", "State": "NY", "Zip": "13676", "County": "St Lawrence", "Latitude": 44.685589, "Longitude": -75.002868, "t_Fuels": "Conventional Hydroelectric", "t_Output": 3.0 }, "geometry": { "type": "Point", "coordinates": [ -75.002868, 44.685589 ] } },
{ "type": "Feature", "properties": { "Name": "New York State Dam Hydro", "description": "<p>\nFuel: Conventional Hydroelectric<br\/>\nNameplate Output: 11.4", "Plant_Code": 10221, "Plant_Name": "New York State Dam Hydro", "State": "NY", "Zip": "12188", "County": "Saratoga", "Latitude": 42.781779, "Longitude": -73.696096, "t_Fuels": "Conventional Hydroelectric", "t_Output": 11.4 }, "geometry": { "type": "Point", "coordinates": [ -73.696096, 42.781779 ] } },
{ "type": "Feature", "properties": { "Name": "Diana Hydroelectric", "description": "<p>\nFuel: Conventional Hydroelectric<br\/>\nNameplate Output: 1.8", "Plant_Code": 10237, "Plant_Name": "Diana Hydroelectric", "State": "NY", "Zip": "13648", "County": "Lewis", "Latitude": 44.151944, "Longitude": -75.321725, "t_Fuels": "Conventional Hydroelectric", "t_Output": 1.8 }, "geometry": { "type": "Point", "coordinates": [ -75.321725, 44.151944 ] } },
{ "type": "Feature", "properties": { "Name": "Dolgeville Hydro", "description": "<p>\nFuel: Conventional Hydroelectric<br\/>\nNameplate Output: 5.0", "Plant_Code": 10238, "Plant_Name": "Dolgeville Hydro", "State": "NY", "Zip": "13329", "County": "Herkimer", "Latitude": 43.090635, "Longitude": -74.766961, "t_Fuels": "Conventional Hydroelectric", "t_Output": 5.0 }, "geometry": { "type": "Point", "coordinates": [ -74.766961, 43.090635 ] } },
{ "type": "Feature", "properties": { "Name": "Cornell Hydro", "description": "<p>\nFuel: Conventional Hydroelectric<br\/>\nNameplate Output: 1.9", "Plant_Code": 10286, "Plant_Name": "Cornell Hydro", "State": "NY", "Zip": "14853", "County": "Tompkins", "Latitude": 42.451922, "Longitude": -76.485092, "t_Fuels": "Conventional Hydroelectric", "t_Output": 1.9 }, "geometry": { "type": "Point", "coordinates": [ -76.485092, 42.451922 ] } },
{ "type": "Feature", "properties": { "Name": "Dutchess Cnty Resource Recovery Facility", "description": "<p>\nFuel: Municipal Solid Waste<br\/>\nNameplate Output: 9.2", "Plant_Code": 10305, "Plant_Name": "Dutchess Cnty Resource Recovery Facility", "State": "NY", "Zip": "12601", "County": "Dutchess", "Latitude": 41.647, "Longitude": -73.943, "t_Fuels": "Municipal Solid Waste", "t_Output": 9.2 }, "geometry": { "type": "Point", "coordinates": [ -73.943, 41.647 ] } },
{ "type": "Feature", "properties": { "Name": "ReEnergy Black River", "description": "<p>\nFuel: Wood\/Wood Waste Biomass<br\/>\nNameplate Output: 55.5", "Plant_Code": 10464, "Plant_Name": "ReEnergy Black River", "State": "NY", "Zip": "13602", "County": "Jefferson", "Latitude": 44.03647, "Longitude": -75.77204, "t_Fuels": "Wood\/Wood Waste Biomass", "t_Output": 55.5 }, "geometry": { "type": "Point", "coordinates": [ -75.77204, 44.03647 ] } },
{ "type": "Feature", "properties": { "Name": "Fourth Branch Hydroelectric Facility", "description": "<p>\nFuel: Conventional Hydroelectric<br\/>\nNameplate Output: 3.3", "Plant_Code": 10467, "Plant_Name": "Fourth Branch Hydroelectric Facility", "State": "NY", "Zip": "12188", "County": "Saratoga", "Latitude": 42.787575, "Longitude": -73.691676, "t_Fuels": "Conventional Hydroelectric", "t_Output": 3.3 }, "geometry": { "type": "Point", "coordinates": [ -73.691676, 42.787575 ] } },
{ "type": "Feature", "properties": { "Name": "Upper Beaver Falls Project", "description": "<p>\nFuel: Conventional Hydroelectric<br\/>\nNameplate Output: 1.5", "Plant_Code": 10490, "Plant_Name": "Upper Beaver Falls Project", "State": "NY", "Zip": "13620", "County": "Lewis", "Latitude": 43.883611, "Longitude": -75.428056, "t_Fuels": "Conventional Hydroelectric", "t_Output": 1.5 }, "geometry": { "type": "Point", "coordinates": [ -75.428056, 43.883611 ] } },
{ "type": "Feature", "properties": { "Name": "Wheelabrator Hudson Falls", "description": "<p>\nFuel: Municipal Solid Waste<br\/>\nNameplate Output: 14.4", "Plant_Code": 10503, "Plant_Name": "Wheelabrator Hudson Falls", "State": "NY", "Zip": "12839", "County": "Washington", "Latitude": 43.3056, "Longitude": -73.591447, "t_Fuels": "Municipal Solid Waste", "t_Output": 14.4 }, "geometry": { "type": "Point", "coordinates": [ -73.591447, 43.3056 ] } },
{ "type": "Feature", "properties": { "Name": "Finch Paper", "description": "<p>\nFuel: Wood\/Wood Waste Biomass<br\/>\nNameplate Output: 29.0", "Plant_Code": 10511, "Plant_Name": "Finch Paper", "State": "NY", "Zip": "12801", "County": "Warren", "Latitude": 43.3084, "Longitude": -73.6376, "t_Fuels": "Wood\/Wood Waste Biomass", "t_Output": 29.0 }, "geometry": { "type": "Point", "coordinates": [ -73.6376, 43.3084 ] } },
{ "type": "Feature", "properties": { "Name": "Lederle Laboratories", "description": "<p>\nFuel: Natural Gas Fired Combined Cycle<br\/>\nNameplate Output: 23.4", "Plant_Code": 10521, "Plant_Name": "Lederle Laboratories", "State": "NY", "Zip": "10965", "County": "Rockland", "Latitude": 41.0772, "Longitude": -74.0181, "t_Fuels": "Natural Gas Fired Combined Cycle", "t_Output": 23.4 }, "geometry": { "type": "Point", "coordinates": [ -74.0181, 41.0772 ] } },
{ "type": "Feature", "properties": { "Name": "Feeder Dam Hydro Plant", "description": "<p>\nFuel: Conventional Hydroelectric<br\/>\nNameplate Output: 5.0", "Plant_Code": 10530, "Plant_Name": "Feeder Dam Hydro Plant", "State": "NY", "Zip": "12803", "County": "Saratoga", "Latitude": 43.289874, "Longitude": -73.665834, "t_Fuels": "Conventional Hydroelectric", "t_Output": 5.0 }, "geometry": { "type": "Point", "coordinates": [ -73.665834, 43.289874 ] } },
{ "type": "Feature", "properties": { "Name": "Beebee Island Hydro Plant", "description": "<p>\nFuel: Conventional Hydroelectric<br\/>\nNameplate Output: 9.0", "Plant_Code": 10531, "Plant_Name": "Beebee Island Hydro Plant", "State": "NY", "Zip": "13601", "County": "Jefferson", "Latitude": 43.9767, "Longitude": -75.9072, "t_Fuels": "Conventional Hydroelectric", "t_Output": 9.0 }, "geometry": { "type": "Point", "coordinates": [ -75.9072, 43.9767 ] } },
{ "type": "Feature", "properties": { "Name": "Dexter Plant", "description": "<p>\nFuel: Conventional Hydroelectric<br\/>\nNameplate Output: 4.2", "Plant_Code": 10538, "Plant_Name": "Dexter Plant", "State": "NY", "Zip": "13634", "County": "Jefferson", "Latitude": 44.003984, "Longitude": -76.041277, "t_Fuels": "Conventional Hydroelectric", "t_Output": 4.2 }, "geometry": { "type": "Point", "coordinates": [ -76.041277, 44.003984 ] } },
{ "type": "Feature", "properties": { "Name": "Theresa Plant", "description": "<p>\nFuel: Conventional Hydroelectric<br\/>\nNameplate Output: 1.3", "Plant_Code": 10539, "Plant_Name": "Theresa Plant", "State": "NY", "Zip": "13694", "County": "Jefferson", "Latitude": 44.21742, "Longitude": -75.795173, "t_Fuels": "Conventional Hydroelectric", "t_Output": 1.3 }, "geometry": { "type": "Point", "coordinates": [ -75.795173, 44.21742 ] } },
{ "type": "Feature", "properties": { "Name": "Diamond Island Plant", "description": "<p>\nFuel: Conventional Hydroelectric<br\/>\nNameplate Output: 1.2", "Plant_Code": 10540, "Plant_Name": "Diamond Island Plant", "State": "NY", "Zip": "13601", "County": "Jefferson", "Latitude": 43.978626, "Longitude": -75.886102, "t_Fuels": "Conventional Hydroelectric", "t_Output": 1.2 }, "geometry": { "type": "Point", "coordinates": [ -75.886102, 43.978626 ] } },
{ "type": "Feature", "properties": { "Name": "Hailesboro 4 Plant", "description": "<p>\nFuel: Conventional Hydroelectric<br\/>\nNameplate Output: 1.4", "Plant_Code": 10544, "Plant_Name": "Hailesboro 4 Plant", "State": "NY", "Zip": "13645", "County": "St Lawrence", "Latitude": 44.311681, "Longitude": -75.444992, "t_Fuels": "Conventional Hydroelectric", "t_Output": 1.4 }, "geometry": { "type": "Point", "coordinates": [ -75.444992, 44.311681 ] } },
{ "type": "Feature", "properties": { "Name": "Copenhagen Plant", "description": "<p>\nFuel: Conventional Hydroelectric<br\/>\nNameplate Output: 3.3", "Plant_Code": 10545, "Plant_Name": "Copenhagen Plant", "State": "NY", "Zip": "13626", "County": "Lewis", "Latitude": 43.899745, "Longitude": -75.660268, "t_Fuels": "Conventional Hydroelectric", "t_Output": 3.3 }, "geometry": { "type": "Point", "coordinates": [ -75.660268, 43.899745 ] } },
{ "type": "Feature", "properties": { "Name": "Pyrites Plant", "description": "<p>\nFuel: Conventional Hydroelectric<br\/>\nNameplate Output: 8.2", "Plant_Code": 10547, "Plant_Name": "Pyrites Plant", "State": "NY", "Zip": "13677", "County": "St Lawrence", "Latitude": 44.522043, "Longitude": -75.188108, "t_Fuels": "Conventional Hydroelectric", "t_Output": 8.2 }, "geometry": { "type": "Point", "coordinates": [ -75.188108, 44.522043 ] } },
{ "type": "Feature", "properties": { "Name": "Al Turi", "description": "<p>\nFuel: Landfill Gas<br\/>\nNameplate Output: 2.4", "Plant_Code": 10549, "Plant_Name": "Al Turi", "State": "NY", "Zip": "10924", "County": "Orange", "Latitude": 41.40432, "Longitude": -74.37671, "t_Fuels": "Landfill Gas", "t_Output": 2.4 }, "geometry": { "type": "Point", "coordinates": [ -74.37671, 41.40432 ] } },
{ "type": "Feature", "properties": { "Name": "CH Resources Beaver Falls", "description": "<p>\nFuel: Natural Gas Fired Combined Cycle<br\/>\nNameplate Output: 107.8", "Plant_Code": 10617, "Plant_Name": "CH Resources Beaver Falls", "State": "NY", "Zip": "13305", "County": "Lewis", "Latitude": 43.8861, "Longitude": -75.4342, "t_Fuels": "Natural Gas Fired Combined Cycle", "t_Output": 107.8 }, "geometry": { "type": "Point", "coordinates": [ -75.4342, 43.8861 ] } },
{ "type": "Feature", "properties": { "Name": "Carthage Energy LLC", "description": "<p>\nFuel: Natural Gas Fired Combined Cycle<br\/>\nNameplate Output: 62.9", "Plant_Code": 10620, "Plant_Name": "Carthage Energy LLC", "State": "NY", "Zip": "13619", "County": "Jefferson", "Latitude": 43.9842, "Longitude": -75.6225, "t_Fuels": "Natural Gas Fired Combined Cycle", "t_Output": 62.9 }, "geometry": { "type": "Point", "coordinates": [ -75.6225, 43.9842 ] } },
{ "type": "Feature", "properties": { "Name": "CH Resources Syracuse", "description": "<p>\nFuel: Natural Gas Fired Combined Cycle<br\/>\nNameplate Output: 102.7", "Plant_Code": 10621, "Plant_Name": "CH Resources Syracuse", "State": "NY", "Zip": "13209", "County": "Onondaga", "Latitude": 43.0664, "Longitude": -76.2144, "t_Fuels": "Natural Gas Fired Combined Cycle", "t_Output": 102.7 }, "geometry": { "type": "Point", "coordinates": [ -76.2144, 43.0664 ] } },
{ "type": "Feature", "properties": { "Name": "Covanta Hempstead", "description": "<p>\nFuel: Municipal Solid Waste<br\/>\nNameplate Output: 78.6", "Plant_Code": 10642, "Plant_Name": "Covanta Hempstead", "State": "NY", "Zip": "11590", "County": "Nassau", "Latitude": 40.7389, "Longitude": -73.5906, "t_Fuels": "Municipal Solid Waste", "t_Output": 78.6 }, "geometry": { "type": "Point", "coordinates": [ -73.5906, 40.7389 ] } },
{ "type": "Feature", "properties": { "Name": "Black River Hydro Associates", "description": "<p>\nFuel: Conventional Hydroelectric<br\/>\nNameplate Output: 5.7", "Plant_Code": 10687, "Plant_Name": "Black River Hydro Associates", "State": "NY", "Zip": "13433", "County": "Lewis", "Latitude": 43.591246, "Longitude": -75.344207, "t_Fuels": "Conventional Hydroelectric", "t_Output": 5.7 }, "geometry": { "type": "Point", "coordinates": [ -75.344207, 43.591246 ] } },
{ "type": "Feature", "properties": { "Name": "Selkirk Cogen", "description": "<p>\nFuel: Natural Gas Fired Combined Cycle<br\/>\nNameplate Output: 446.0", "Plant_Code": 10725, "Plant_Name": "Selkirk Cogen", "State": "NY", "Zip": "12158", "County": "Albany", "Latitude": 42.5744, "Longitude": -73.8592, "t_Fuels": "Natural Gas Fired Combined Cycle", "t_Output": 446.0 }, "geometry": { "type": "Point", "coordinates": [ -73.8592, 42.5744 ] } },
{ "type": "Feature", "properties": { "Name": "Lachute Hydro Lower", "description": "<p>\nFuel: Conventional Hydroelectric<br\/>\nNameplate Output: 3.8", "Plant_Code": 10752, "Plant_Name": "Lachute Hydro Lower", "State": "NY", "Zip": "12883", "County": "Essex", "Latitude": 43.849029, "Longitude": -73.420701, "t_Fuels": "Conventional Hydroelectric", "t_Output": 3.8 }, "geometry": { "type": "Point", "coordinates": [ -73.420701, 43.849029 ] } },
{ "type": "Feature", "properties": { "Name": "Lachute Hydro Upper", "description": "<p>\nFuel: Conventional Hydroelectric<br\/>\nNameplate Output: 5.2", "Plant_Code": 10753, "Plant_Name": "Lachute Hydro Upper", "State": "NY", "Zip": "12883", "County": "Essex", "Latitude": 43.843869, "Longitude": -73.431207, "t_Fuels": "Conventional Hydroelectric", "t_Output": 5.2 }, "geometry": { "type": "Point", "coordinates": [ -73.431207, 43.843869 ] } },
{ "type": "Feature", "properties": { "Name": "Ogdensburg Power", "description": "<p>\nFuel: Natural Gas Steam Turbine<br\/>\nNameplate Output: 26.9", "Plant_Code": 10803, "Plant_Name": "Ogdensburg Power", "State": "NY", "Zip": "13669", "County": "St Lawrence", "Latitude": 44.7258, "Longitude": -75.4417, "t_Fuels": "Natural Gas Steam Turbine", "t_Output": 26.9 }, "geometry": { "type": "Point", "coordinates": [ -75.4417, 44.7258 ] } },
{ "type": "Feature", "properties": { "Name": "Port Leyden Hydroelectric Project", "description": "<p>\nFuel: Conventional Hydroelectric<br\/>\nNameplate Output: 1.0", "Plant_Code": 10817, "Plant_Name": "Port Leyden Hydroelectric Project", "State": "NY", "Zip": "13433", "County": "Lewis", "Latitude": 43.583611, "Longitude": -75.339167, "t_Fuels": "Conventional Hydroelectric", "t_Output": 1.0 }, "geometry": { "type": "Point", "coordinates": [ -75.339167, 43.583611 ] } },
{ "type": "Feature", "properties": { "Name": "Walden", "description": "<p>\nFuel: Conventional Hydroelectric<br\/>\nNameplate Output: 2.4", "Plant_Code": 10848, "Plant_Name": "Walden", "State": "NY", "Zip": "12586", "County": "Orange", "Latitude": 41.55998, "Longitude": -74.195154, "t_Fuels": "Conventional Hydroelectric", "t_Output": 2.4 }, "geometry": { "type": "Point", "coordinates": [ -74.195154, 41.55998 ] } },
{ "type": "Feature", "properties": { "Name": "Center Falls", "description": "<p>\nFuel: Conventional Hydroelectric<br\/>\nNameplate Output: 1.1", "Plant_Code": 10853, "Plant_Name": "Center Falls", "State": "NY", "Zip": "12834", "County": "Washington", "Latitude": 43.096677, "Longitude": -73.460172, "t_Fuels": "Conventional Hydroelectric", "t_Output": 1.1 }, "geometry": { "type": "Point", "coordinates": [ -73.460172, 43.096677 ] } },
{ "type": "Feature", "properties": { "Name": "Kings Falls Hydroelectric", "description": "<p>\nFuel: Conventional Hydroelectric<br\/>\nNameplate Output: 1.6", "Plant_Code": 10872, "Plant_Name": "Kings Falls Hydroelectric", "State": "NY", "Zip": "13631", "County": "Lewis", "Latitude": 43.917267, "Longitude": -75.633822, "t_Fuels": "Conventional Hydroelectric", "t_Output": 1.6 }, "geometry": { "type": "Point", "coordinates": [ -75.633822, 43.917267 ] } },
{ "type": "Feature", "properties": { "Name": "Victory Mills", "description": "<p>\nFuel: Conventional Hydroelectric<br\/>\nNameplate Output: 1.7", "Plant_Code": 10902, "Plant_Name": "Victory Mills", "State": "NY", "Zip": "12884", "County": "Cayuga", "Latitude": 42.9197, "Longitude": -76.5477, "t_Fuels": "Conventional Hydroelectric", "t_Output": 1.7 }, "geometry": { "type": "Point", "coordinates": [ -76.5477, 42.9197 ] } },
{ "type": "Feature", "properties": { "Name": "Mt Ida Hydroelectric", "description": "<p>\nFuel: Conventional Hydroelectric<br\/>\nNameplate Output: 3.0", "Plant_Code": 50031, "Plant_Name": "Mt Ida Hydroelectric", "State": "NY", "Zip": "12180", "County": "Rensselaer", "Latitude": 42.721326, "Longitude": -73.680608, "t_Fuels": "Conventional Hydroelectric", "t_Output": 3.0 }, "geometry": { "type": "Point", "coordinates": [ -73.680608, 42.721326 ] } },
{ "type": "Feature", "properties": { "Name": "Valley Falls Hydroelectric Facility", "description": "<p>\nFuel: Conventional Hydroelectric<br\/>\nNameplate Output: 2.5", "Plant_Code": 50034, "Plant_Name": "Valley Falls Hydroelectric Facility", "State": "NY", "Zip": "12144", "County": "Rensselaer", "Latitude": 42.9044, "Longitude": -73.5625, "t_Fuels": "Conventional Hydroelectric", "t_Output": 2.5 }, "geometry": { "type": "Point", "coordinates": [ -73.5625, 42.9044 ] } },
{ "type": "Feature", "properties": { "Name": "Goodyear Lake Plant", "description": "<p>\nFuel: Conventional Hydroelectric<br\/>\nNameplate Output: 1.4", "Plant_Code": 50079, "Plant_Name": "Goodyear Lake Plant", "State": "NY", "Zip": "13820", "County": "Otsego", "Latitude": 42.502473, "Longitude": -74.98356, "t_Fuels": "Conventional Hydroelectric", "t_Output": 1.4 }, "geometry": { "type": "Point", "coordinates": [ -74.98356, 42.502473 ] } },
{ "type": "Feature", "properties": { "Name": "Chateaugay High Falls Hydro", "description": "<p>\nFuel: Conventional Hydroelectric<br\/>\nNameplate Output: 1.7", "Plant_Code": 50093, "Plant_Name": "Chateaugay High Falls Hydro", "State": "NY", "Zip": "12920", "County": "Franklin", "Latitude": 44.909915, "Longitude": -74.085798, "t_Fuels": "Conventional Hydroelectric", "t_Output": 1.7 }, "geometry": { "type": "Point", "coordinates": [ -74.085798, 44.909915 ] } },
{ "type": "Feature", "properties": { "Name": "Normanskill Hydro Project", "description": "<p>\nFuel: Conventional Hydroelectric<br\/>\nNameplate Output: 1.2", "Plant_Code": 50123, "Plant_Name": "Normanskill Hydro Project", "State": "NY", "Zip": "12084", "County": "Albany", "Latitude": 42.712356, "Longitude": -73.957324, "t_Fuels": "Conventional Hydroelectric", "t_Output": 1.2 }, "geometry": { "type": "Point", "coordinates": [ -73.957324, 42.712356 ] } },
{ "type": "Feature", "properties": { "Name": "South Oaks Hospital", "description": "<p>\nFuel: Natural Gas Internal Combustion Engine<br\/>\nNameplate Output: 1.0", "Plant_Code": 50136, "Plant_Name": "South Oaks Hospital", "State": "NY", "Zip": "11701", "County": "Suffolk", "Latitude": 40.6853, "Longitude": -73.4258, "t_Fuels": "Natural Gas Internal Combustion Engine", "t_Output": 1.0 }, "geometry": { "type": "Point", "coordinates": [ -73.4258, 40.6853 ] } },
{ "type": "Feature", "properties": { "Name": "Union Falls", "description": "<p>\nFuel: Conventional Hydroelectric<br\/>\nNameplate Output: 2.6", "Plant_Code": 50176, "Plant_Name": "Union Falls", "State": "NY", "Zip": "12912", "County": "Clinton", "Latitude": 44.510739, "Longitude": -73.913079, "t_Fuels": "Conventional Hydroelectric", "t_Output": 2.6 }, "geometry": { "type": "Point", "coordinates": [ -73.913079, 44.510739 ] } },
{ "type": "Feature", "properties": { "Name": "US Gypsum Oakfield", "description": "<p>\nFuel: Natural Gas Fired Combustion Turbine<br\/>\nNameplate Output: 5.8", "Plant_Code": 50203, "Plant_Name": "US Gypsum Oakfield", "State": "NY", "Zip": "14125", "County": "Genesee", "Latitude": 43.0647, "Longitude": -78.2972, "t_Fuels": "Natural Gas Fired Combustion Turbine", "t_Output": 5.8 }, "geometry": { "type": "Point", "coordinates": [ -78.2972, 43.0647 ] } },
{ "type": "Feature", "properties": { "Name": "Hewittville Hydroelectric", "description": "<p>\nFuel: Conventional Hydroelectric<br\/>\nNameplate Output: 3.0", "Plant_Code": 50268, "Plant_Name": "Hewittville Hydroelectric", "State": "NY", "Zip": "13668", "County": "St Lawrence", "Latitude": 44.705167, "Longitude": -75.007933, "t_Fuels": "Conventional Hydroelectric", "t_Output": 3.0 }, "geometry": { "type": "Point", "coordinates": [ -75.007933, 44.705167 ] } },
{ "type": "Feature", "properties": { "Name": "Unionville Hydro Project 2499 NY", "description": "<p>\nFuel: Conventional Hydroelectric<br\/>\nNameplate Output: 3.0", "Plant_Code": 50269, "Plant_Name": "Unionville Hydro Project 2499 NY", "State": "NY", "Zip": "13668", "County": "St Lawrence", "Latitude": 44.714518, "Longitude": -74.996581, "t_Fuels": "Conventional Hydroelectric", "t_Output": 3.0 }, "geometry": { "type": "Point", "coordinates": [ -74.996581, 44.714518 ] } },
{ "type": "Feature", "properties": { "Name": "Dahowa Hydro", "description": "<p>\nFuel: Conventional Hydroelectric<br\/>\nNameplate Output: 10.5", "Plant_Code": 50280, "Plant_Name": "Dahowa Hydro", "State": "NY", "Zip": "12834", "County": "Washington", "Latitude": 43.1033, "Longitude": -73.5369, "t_Fuels": "Conventional Hydroelectric", "t_Output": 10.5 }, "geometry": { "type": "Point", "coordinates": [ -73.5369, 43.1033 ] } },
{ "type": "Feature", "properties": { "Name": "Bethpage Power Plant", "description": "<p>\nFuel: Natural Gas Fired Combined Cycle, Natural Gas Fired Combustion Turbine, Petroleum Liquids<br\/>\nNameplate Output: 240.0", "Plant_Code": 50292, "Plant_Name": "Bethpage Power Plant", "State": "NY", "Zip": "11801", "County": "Nassau", "Latitude": 40.7469, "Longitude": -73.4994, "t_Fuels": "Natural Gas Fired Combined Cycle, Natural Gas Fired Combustion Turbine, Petroleum Liquids", "t_Output": 240.0 }, "geometry": { "type": "Point", "coordinates": [ -73.4994, 40.7469 ] } },
{ "type": "Feature", "properties": { "Name": "Chasm Hydro Partnership", "description": "<p>\nFuel: Conventional Hydroelectric<br\/>\nNameplate Output: 1.6", "Plant_Code": 50315, "Plant_Name": "Chasm Hydro Partnership", "State": "NY", "Zip": "12920", "County": "Franklin", "Latitude": 44.9318, "Longitude": -74.1125, "t_Fuels": "Conventional Hydroelectric", "t_Output": 1.6 }, "geometry": { "type": "Point", "coordinates": [ -74.1125, 44.9318 ] } },
{ "type": "Feature", "properties": { "Name": "Newport Hydro", "description": "<p>\nFuel: Conventional Hydroelectric<br\/>\nNameplate Output: 1.7", "Plant_Code": 50354, "Plant_Name": "Newport Hydro", "State": "NY", "Zip": "13416", "County": "Herkimer", "Latitude": 43.1853, "Longitude": -75.0169, "t_Fuels": "Conventional Hydroelectric", "t_Output": 1.7 }, "geometry": { "type": "Point", "coordinates": [ -75.0169, 43.1853 ] } },
{ "type": "Feature", "properties": { "Name": "Cornell University Central Heat", "description": "<p>\nFuel: Natural Gas Fired Combined Cycle, Petroleum Liquids<br\/>\nNameplate Output: 39.5", "Plant_Code": 50368, "Plant_Name": "Cornell University Central Heat", "State": "NY", "Zip": "14853", "County": "Tompkins", "Latitude": 42.4428, "Longitude": -76.4764, "t_Fuels": "Natural Gas Fired Combined Cycle, Petroleum Liquids", "t_Output": 39.5 }, "geometry": { "type": "Point", "coordinates": [ -76.4764, 42.4428 ] } },
{ "type": "Feature", "properties": { "Name": "Tannery Island Power", "description": "<p>\nFuel: Conventional Hydroelectric<br\/>\nNameplate Output: 1.5", "Plant_Code": 50416, "Plant_Name": "Tannery Island Power", "State": "NY", "Zip": "13619", "County": "Jefferson", "Latitude": 43.98, "Longitude": -75.6131, "t_Fuels": "Conventional Hydroelectric", "t_Output": 1.5 }, "geometry": { "type": "Point", "coordinates": [ -75.6131, 43.98 ] } },
{ "type": "Feature", "properties": { "Name": "Bronx Zoo", "description": "<p>\nFuel: Natural Gas Internal Combustion Engine<br\/>\nNameplate Output: 3.6", "Plant_Code": 50427, "Plant_Name": "Bronx Zoo", "State": "NY", "Zip": "10460", "County": "Bronx", "Latitude": 40.844114, "Longitude": -73.876888, "t_Fuels": "Natural Gas Internal Combustion Engine", "t_Output": 3.6 }, "geometry": { "type": "Point", "coordinates": [ -73.876888, 40.844114 ] } },
{ "type": "Feature", "properties": { "Name": "Indeck Silver Springs Energy Center", "description": "<p>\nFuel: Natural Gas Fired Combined Cycle<br\/>\nNameplate Output: 56.6", "Plant_Code": 50449, "Plant_Name": "Indeck Silver Springs Energy Center", "State": "NY", "Zip": "14550", "County": "Wyoming", "Latitude": 42.6544, "Longitude": -78.0772, "t_Fuels": "Natural Gas Fired Combined Cycle", "t_Output": 56.6 }, "geometry": { "type": "Point", "coordinates": [ -78.0772, 42.6544 ] } },
{ "type": "Feature", "properties": { "Name": "Indeck Oswego Energy Center", "description": "<p>\nFuel: Natural Gas Fired Combined Cycle<br\/>\nNameplate Output: 57.4", "Plant_Code": 50450, "Plant_Name": "Indeck Oswego Energy Center", "State": "NY", "Zip": "13126", "County": "Oswego", "Latitude": 43.471745, "Longitude": -76.493474, "t_Fuels": "Natural Gas Fired Combined Cycle", "t_Output": 57.4 }, "geometry": { "type": "Point", "coordinates": [ -76.493474, 43.471745 ] } },
{ "type": "Feature", "properties": { "Name": "Indeck Yerkes Energy Center", "description": "<p>\nFuel: Natural Gas Fired Combined Cycle<br\/>\nNameplate Output: 59.9", "Plant_Code": 50451, "Plant_Name": "Indeck Yerkes Energy Center", "State": "NY", "Zip": "14150", "County": "Erie", "Latitude": 42.9671, "Longitude": -78.9182, "t_Fuels": "Natural Gas Fired Combined Cycle", "t_Output": 59.9 }, "geometry": { "type": "Point", "coordinates": [ -78.9182, 42.9671 ] } },
{ "type": "Feature", "properties": { "Name": "Indeck Corinth Energy Center", "description": "<p>\nFuel: Natural Gas Fired Combined Cycle<br\/>\nNameplate Output: 147.0", "Plant_Code": 50458, "Plant_Name": "Indeck Corinth Energy Center", "State": "NY", "Zip": "12822", "County": "Saratoga", "Latitude": 43.25, "Longitude": -73.8125, "t_Fuels": "Natural Gas Fired Combined Cycle", "t_Output": 147.0 }, "geometry": { "type": "Point", "coordinates": [ -73.8125, 43.25 ] } },
{ "type": "Feature", "properties": { "Name": "Covanta Niagara I, LLC", "description": "<p>\nFuel: Municipal Solid Waste<br\/>\nNameplate Output: 50.0", "Plant_Code": 50472, "Plant_Name": "Covanta Niagara I, LLC", "State": "NY", "Zip": "14304", "County": "Niagara", "Latitude": 43.0839, "Longitude": -79.0056, "t_Fuels": "Municipal Solid Waste", "t_Output": 50.0 }, "geometry": { "type": "Point", "coordinates": [ -79.0056, 43.0839 ] } },
{ "type": "Feature", "properties": { "Name": "Glen Park Hydroelectric Project", "description": "<p>\nFuel: Conventional Hydroelectric<br\/>\nNameplate Output: 32.6", "Plant_Code": 50512, "Plant_Name": "Glen Park Hydroelectric Project", "State": "NY", "Zip": "13601", "County": "Jefferson", "Latitude": 44.000608, "Longitude": -75.961156, "t_Fuels": "Conventional Hydroelectric", "t_Output": 32.6 }, "geometry": { "type": "Point", "coordinates": [ -75.961156, 44.000608 ] } },
{ "type": "Feature", "properties": { "Name": "Stillwater Reservoir Hydro", "description": "<p>\nFuel: Conventional Hydroelectric<br\/>\nNameplate Output: 1.8", "Plant_Code": 50513, "Plant_Name": "Stillwater Reservoir Hydro", "State": "NY", "Zip": "13350", "County": "Herkimer", "Latitude": 43.897386, "Longitude": -75.04, "t_Fuels": "Conventional Hydroelectric", "t_Output": 1.8 }, "geometry": { "type": "Point", "coordinates": [ -75.04, 43.897386 ] } },
{ "type": "Feature", "properties": { "Name": "Fort Miller Hydroelectric Facility", "description": "<p>\nFuel: Conventional Hydroelectric<br\/>\nNameplate Output: 5.0", "Plant_Code": 50514, "Plant_Name": "Fort Miller Hydroelectric Facility", "State": "NY", "Zip": "12871", "County": "Saratoga", "Latitude": 43.160868, "Longitude": -73.584076, "t_Fuels": "Conventional Hydroelectric", "t_Output": 5.0 }, "geometry": { "type": "Point", "coordinates": [ -73.584076, 43.160868 ] } },
{ "type": "Feature", "properties": { "Name": "Monroe Livingston Gas Recovery", "description": "<p>\nFuel: Landfill Gas<br\/>\nNameplate Output: 1.6", "Plant_Code": 50565, "Plant_Name": "Monroe Livingston Gas Recovery", "State": "NY", "Zip": "14546", "County": "Monroe", "Latitude": 42.9903, "Longitude": -77.8011, "t_Fuels": "Landfill Gas", "t_Output": 1.6 }, "geometry": { "type": "Point", "coordinates": [ -77.8011, 42.9903 ] } },
{ "type": "Feature", "properties": { "Name": "High Acres Gas Recovery", "description": "<p>\nFuel: Landfill Gas<br\/>\nNameplate Output: 9.6", "Plant_Code": 50568, "Plant_Name": "High Acres Gas Recovery", "State": "NY", "Zip": "14450", "County": "Monroe", "Latitude": 43.081667, "Longitude": -77.381667, "t_Fuels": "Landfill Gas", "t_Output": 9.6 }, "geometry": { "type": "Point", "coordinates": [ -77.381667, 43.081667 ] } },
{ "type": "Feature", "properties": { "Name": "Covanta Babylon Inc", "description": "<p>\nFuel: Municipal Solid Waste<br\/>\nNameplate Output: 17.0", "Plant_Code": 50649, "Plant_Name": "Covanta Babylon Inc", "State": "NY", "Zip": "11704", "County": "Suffolk", "Latitude": 40.7348, "Longitude": -73.3868, "t_Fuels": "Municipal Solid Waste", "t_Output": 17.0 }, "geometry": { "type": "Point", "coordinates": [ -73.3868, 40.7348 ] } },
{ "type": "Feature", "properties": { "Name": "Lyonsdale Associates", "description": "<p>\nFuel: Conventional Hydroelectric<br\/>\nNameplate Output: 3.0", "Plant_Code": 50652, "Plant_Name": "Lyonsdale Associates", "State": "NY", "Zip": "13368", "County": "Lewis", "Latitude": 43.618874, "Longitude": -75.30546, "t_Fuels": "Conventional Hydroelectric", "t_Output": 3.0 }, "geometry": { "type": "Point", "coordinates": [ -75.30546, 43.618874 ] } },
{ "type": "Feature", "properties": { "Name": "Huntington Resource Recovery Facility", "description": "<p>\nFuel: Municipal Solid Waste<br\/>\nNameplate Output: 28.0", "Plant_Code": 50656, "Plant_Name": "Huntington Resource Recovery Facility", "State": "NY", "Zip": "11731", "County": "Suffolk", "Latitude": 40.8814, "Longitude": -73.2906, "t_Fuels": "Municipal Solid Waste", "t_Output": 28.0 }, "geometry": { "type": "Point", "coordinates": [ -73.2906, 40.8814 ] } },
{ "type": "Feature", "properties": { "Name": "Onondaga County Resource Recovery", "description": "<p>\nFuel: Municipal Solid Waste<br\/>\nNameplate Output: 39.5", "Plant_Code": 50662, "Plant_Name": "Onondaga County Resource Recovery", "State": "NY", "Zip": "13078", "County": "Onondaga", "Latitude": 43.0047, "Longitude": -76.1149, "t_Fuels": "Municipal Solid Waste", "t_Output": 39.5 }, "geometry": { "type": "Point", "coordinates": [ -76.1149, 43.0047 ] } },
{ "type": "Feature", "properties": { "Name": "Starrett City Cogen Facility", "description": "<p>\nFuel: Natural Gas Steam Turbine, Petroleum Liquids<br\/>\nNameplate Output: 18.0", "Plant_Code": 50743, "Plant_Name": "Starrett City Cogen Facility", "State": "NY", "Zip": "11239", "County": "Kings", "Latitude": 40.6492, "Longitude": -73.8792, "t_Fuels": "Natural Gas Steam Turbine, Petroleum Liquids", "t_Output": 18.0 }, "geometry": { "type": "Point", "coordinates": [ -73.8792, 40.6492 ] } },
{ "type": "Feature", "properties": { "Name": "Sterling Power Plant", "description": "<p>\nFuel: Natural Gas Fired Combined Cycle, Petroleum Liquids<br\/>\nNameplate Output: 65.3", "Plant_Code": 50744, "Plant_Name": "Sterling Power Plant", "State": "NY", "Zip": "13461", "County": "Oneida", "Latitude": 43.080338, "Longitude": -75.600963, "t_Fuels": "Natural Gas Fired Combined Cycle, Petroleum Liquids", "t_Output": 65.3 }, "geometry": { "type": "Point", "coordinates": [ -75.600963, 43.080338 ] } },
{ "type": "Feature", "properties": { "Name": "West End Dam Hydroelectric Project", "description": "<p>\nFuel: Conventional Hydroelectric<br\/>\nNameplate Output: 4.4", "Plant_Code": 50759, "Plant_Name": "West End Dam Hydroelectric Project", "State": "NY", "Zip": "13619", "County": "Jefferson", "Latitude": 43.98289, "Longitude": -75.620583, "t_Fuels": "Conventional Hydroelectric", "t_Output": 4.4 }, "geometry": { "type": "Point", "coordinates": [ -75.620583, 43.98289 ] } },
{ "type": "Feature", "properties": { "Name": "Forestport", "description": "<p>\nFuel: Conventional Hydroelectric<br\/>\nNameplate Output: 3.4", "Plant_Code": 50768, "Plant_Name": "Forestport", "State": "NY", "Zip": "13421", "County": "Oneida", "Latitude": 43.442468, "Longitude": -75.215946, "t_Fuels": "Conventional Hydroelectric", "t_Output": 3.4 }, "geometry": { "type": "Point", "coordinates": [ -75.215946, 43.442468 ] } },
{ "type": "Feature", "properties": { "Name": "Wheelabrator Westchester", "description": "<p>\nFuel: Municipal Solid Waste<br\/>\nNameplate Output: 59.7", "Plant_Code": 50882, "Plant_Name": "Wheelabrator Westchester", "State": "NY", "Zip": "10566", "County": "Westchester", "Latitude": 41.277129, "Longitude": -73.942344, "t_Fuels": "Municipal Solid Waste", "t_Output": 59.7 }, "geometry": { "type": "Point", "coordinates": [ -73.942344, 41.277129 ] } },
{ "type": "Feature", "properties": { "Name": "Oswego County Energy Recovery", "description": "<p>\nFuel: Municipal Solid Waste<br\/>\nNameplate Output: 3.6", "Plant_Code": 50907, "Plant_Name": "Oswego County Energy Recovery", "State": "NY", "Zip": "13069", "County": "Oswego", "Latitude": 43.348808, "Longitude": -76.425169, "t_Fuels": "Municipal Solid Waste", "t_Output": 3.6 }, "geometry": { "type": "Point", "coordinates": [ -76.425169, 43.348808 ] } },
{ "type": "Feature", "properties": { "Name": "Carr Street Generating Station", "description": "<p>\nFuel: Natural Gas Fired Combined Cycle<br\/>\nNameplate Output: 122.6", "Plant_Code": 50978, "Plant_Name": "Carr Street Generating Station", "State": "NY", "Zip": "13057", "County": "Onondaga", "Latitude": 43.06132, "Longitude": -76.08239, "t_Fuels": "Natural Gas Fired Combined Cycle", "t_Output": 122.6 }, "geometry": { "type": "Point", "coordinates": [ -76.08239, 43.06132 ] } },
{ "type": "Feature", "properties": { "Name": "West Delaware Tunnel Plant", "description": "<p>\nFuel: Conventional Hydroelectric<br\/>\nNameplate Output: 7.5", "Plant_Code": 51033, "Plant_Name": "West Delaware Tunnel Plant", "State": "NY", "Zip": "12740", "County": "Sullivan", "Latitude": 41.859601, "Longitude": -74.510259, "t_Fuels": "Conventional Hydroelectric", "t_Output": 7.5 }, "geometry": { "type": "Point", "coordinates": [ -74.510259, 41.859601 ] } },
{ "type": "Feature", "properties": { "Name": "Little Falls Hydro", "description": "<p>\nFuel: Conventional Hydroelectric<br\/>\nNameplate Output: 13.0", "Plant_Code": 51034, "Plant_Name": "Little Falls Hydro", "State": "NY", "Zip": "13365", "County": "Herkimer", "Latitude": 43.040335, "Longitude": -74.850621, "t_Fuels": "Conventional Hydroelectric", "t_Output": 13.0 }, "geometry": { "type": "Point", "coordinates": [ -74.850621, 43.040335 ] } },
{ "type": "Feature", "properties": { "Name": "Hofstra University", "description": "<p>\nFuel: Natural Gas Internal Combustion Engine<br\/>\nNameplate Output: 2.2", "Plant_Code": 51035, "Plant_Name": "Hofstra University", "State": "NY", "Zip": "11549", "County": "Nassau", "Latitude": 40.7139, "Longitude": -73.6003, "t_Fuels": "Natural Gas Internal Combustion Engine", "t_Output": 2.2 }, "geometry": { "type": "Point", "coordinates": [ -73.6003, 40.7139 ] } },
{ "type": "Feature", "properties": { "Name": "MacArthur Waste to Energy Facility", "description": "<p>\nFuel: Municipal Solid Waste<br\/>\nNameplate Output: 12.5", "Plant_Code": 51038, "Plant_Name": "MacArthur Waste to Energy Facility", "State": "NY", "Zip": "11779", "County": "Suffolk", "Latitude": 40.7869, "Longitude": -73.1064, "t_Fuels": "Municipal Solid Waste", "t_Output": 12.5 }, "geometry": { "type": "Point", "coordinates": [ -73.1064, 40.7869 ] } },
{ "type": "Feature", "properties": { "Name": "Nassau Energy Corp", "description": "<p>\nFuel: Natural Gas Fired Combined Cycle<br\/>\nNameplate Output: 55.0", "Plant_Code": 52056, "Plant_Name": "Nassau Energy Corp", "State": "NY", "Zip": "11530", "County": "Nassau", "Latitude": 40.7264, "Longitude": -73.5892, "t_Fuels": "Natural Gas Fired Combined Cycle", "t_Output": 55.0 }, "geometry": { "type": "Point", "coordinates": [ -73.5892, 40.7264 ] } },
{ "type": "Feature", "properties": { "Name": "Herkimer", "description": "<p>\nFuel: Conventional Hydroelectric<br\/>\nNameplate Output: 1.6", "Plant_Code": 52057, "Plant_Name": "Herkimer", "State": "NY", "Zip": "13350", "County": "Herkimer", "Latitude": 43.033577, "Longitude": -74.983391, "t_Fuels": "Conventional Hydroelectric", "t_Output": 1.6 }, "geometry": { "type": "Point", "coordinates": [ -74.983391, 43.033577 ] } },
{ "type": "Feature", "properties": { "Name": "Ogdensburg", "description": "<p>\nFuel: Conventional Hydroelectric<br\/>\nNameplate Output: 3.5", "Plant_Code": 52058, "Plant_Name": "Ogdensburg", "State": "NY", "Zip": "13669", "County": "St Lawrence", "Latitude": 44.704089, "Longitude": -75.487049, "t_Fuels": "Conventional Hydroelectric", "t_Output": 3.5 }, "geometry": { "type": "Point", "coordinates": [ -75.487049, 44.704089 ] } },
{ "type": "Feature", "properties": { "Name": "Riverbay", "description": "<p>\nFuel: Natural Gas Fired Combustion Turbine, Natural Gas Steam Turbine, Petroleum Liquids<br\/>\nNameplate Output: 43.5", "Plant_Code": 52168, "Plant_Name": "Riverbay", "State": "NY", "Zip": "10475", "County": "Bronx", "Latitude": 40.869972, "Longitude": -73.824437, "t_Fuels": "Natural Gas Fired Combustion Turbine, Natural Gas Steam Turbine, Petroleum Liquids", "t_Output": 43.5 }, "geometry": { "type": "Point", "coordinates": [ -73.824437, 40.869972 ] } },
{ "type": "Feature", "properties": { "Name": "Rensselaer Cogen", "description": "<p>\nFuel: Natural Gas Fired Combined Cycle<br\/>\nNameplate Output: 88.2", "Plant_Code": 54034, "Plant_Name": "Rensselaer Cogen", "State": "NY", "Zip": "12144", "County": "Rensselaer", "Latitude": 42.625325, "Longitude": -73.749955, "t_Fuels": "Natural Gas Fired Combined Cycle", "t_Output": 88.2 }, "geometry": { "type": "Point", "coordinates": [ -73.749955, 42.625325 ] } },
{ "type": "Feature", "properties": { "Name": "Lockport Energy Associates LP", "description": "<p>\nFuel: Natural Gas Fired Combined Cycle<br\/>\nNameplate Output: 221.3", "Plant_Code": 54041, "Plant_Name": "Lockport Energy Associates LP", "State": "NY", "Zip": "14094", "County": "Niagara", "Latitude": 43.161947, "Longitude": -78.744971, "t_Fuels": "Natural Gas Fired Combined Cycle", "t_Output": 221.3 }, "geometry": { "type": "Point", "coordinates": [ -78.744971, 43.161947 ] } },
{ "type": "Feature", "properties": { "Name": "Indeck Olean Energy Center", "description": "<p>\nFuel: Natural Gas Fired Combined Cycle<br\/>\nNameplate Output: 90.6", "Plant_Code": 54076, "Plant_Name": "Indeck Olean Energy Center", "State": "NY", "Zip": "14760", "County": "Cattaraugus", "Latitude": 42.085944, "Longitude": -78.45425, "t_Fuels": "Natural Gas Fired Combined Cycle", "t_Output": 90.6 }, "geometry": { "type": "Point", "coordinates": [ -78.45425, 42.085944 ] } },
{ "type": "Feature", "properties": { "Name": "Ticonderoga Mill", "description": "<p>\nFuel: Wood\/Wood Waste Biomass<br\/>\nNameplate Output: 42.1", "Plant_Code": 54099, "Plant_Name": "Ticonderoga Mill", "State": "NY", "Zip": "12883", "County": "Essex", "Latitude": 43.891437, "Longitude": -73.396998, "t_Fuels": "Wood\/Wood Waste Biomass", "t_Output": 42.1 }, "geometry": { "type": "Point", "coordinates": [ -73.396998, 43.891437 ] } },
{ "type": "Feature", "properties": { "Name": "Kennedy International Airport Cogen", "description": "<p>\nFuel: Natural Gas Fired Combined Cycle<br\/>\nNameplate Output: 121.2", "Plant_Code": 54114, "Plant_Name": "Kennedy International Airport Cogen", "State": "NY", "Zip": "11430", "County": "Queens", "Latitude": 40.6417, "Longitude": -73.7778, "t_Fuels": "Natural Gas Fired Combined Cycle", "t_Output": 121.2 }, "geometry": { "type": "Point", "coordinates": [ -73.7778, 40.6417 ] } },
{ "type": "Feature", "properties": { "Name": "Fortistar North Tonawanda", "description": "<p>\nFuel: Natural Gas Fired Combined Cycle<br\/>\nNameplate Output: 55.3", "Plant_Code": 54131, "Plant_Name": "Fortistar North Tonawanda", "State": "NY", "Zip": "14120", "County": "Niagara", "Latitude": 43.0483, "Longitude": -78.8539, "t_Fuels": "Natural Gas Fired Combined Cycle", "t_Output": 55.3 }, "geometry": { "type": "Point", "coordinates": [ -78.8539, 43.0483 ] } },
{ "type": "Feature", "properties": { "Name": "Stony Brook Cogen Plant", "description": "<p>\nFuel: Natural Gas Fired Combustion Turbine<br\/>\nNameplate Output: 47.0", "Plant_Code": 54149, "Plant_Name": "Stony Brook Cogen Plant", "State": "NY", "Zip": "11794", "County": "Suffolk", "Latitude": 40.916833, "Longitude": -73.129056, "t_Fuels": "Natural Gas Fired Combustion Turbine", "t_Output": 47.0 }, "geometry": { "type": "Point", "coordinates": [ -73.129056, 40.916833 ] } },
{ "type": "Feature", "properties": { "Name": "Alice Falls Hydro Project", "description": "<p>\nFuel: Conventional Hydroelectric<br\/>\nNameplate Output: 2.1", "Plant_Code": 54391, "Plant_Name": "Alice Falls Hydro Project", "State": "NY", "Zip": "12944", "County": "Clinton", "Latitude": 44.519153, "Longitude": -73.464752, "t_Fuels": "Conventional Hydroelectric", "t_Output": 2.1 }, "geometry": { "type": "Point", "coordinates": [ -73.464752, 44.519153 ] } },
{ "type": "Feature", "properties": { "Name": "Stillwater Hydro Electric Project", "description": "<p>\nFuel: Conventional Hydroelectric<br\/>\nNameplate Output: 3.4", "Plant_Code": 54395, "Plant_Name": "Stillwater Hydro Electric Project", "State": "NY", "Zip": "12170", "County": "Saratoga", "Latitude": 42.937465, "Longitude": -73.654393, "t_Fuels": "Conventional Hydroelectric", "t_Output": 3.4 }, "geometry": { "type": "Point", "coordinates": [ -73.654393, 42.937465 ] } },
{ "type": "Feature", "properties": { "Name": "ReEnergy Lyonsdale Biomass", "description": "<p>\nFuel: Wood\/Wood Waste Biomass<br\/>\nNameplate Output: 21.1", "Plant_Code": 54526, "Plant_Name": "ReEnergy Lyonsdale Biomass", "State": "NY", "Zip": "13368", "County": "Lewis", "Latitude": 43.617965, "Longitude": -75.305443, "t_Fuels": "Wood\/Wood Waste Biomass", "t_Output": 21.1 }, "geometry": { "type": "Point", "coordinates": [ -75.305443, 43.617965 ] } },
{ "type": "Feature", "properties": { "Name": "Sithe Independence Station", "description": "<p>\nFuel: Natural Gas Fired Combined Cycle<br\/>\nNameplate Output: 1086.1", "Plant_Code": 54547, "Plant_Name": "Sithe Independence Station", "State": "NY", "Zip": "13126", "County": "Oswego", "Latitude": 43.495, "Longitude": -76.4511, "t_Fuels": "Natural Gas Fired Combined Cycle", "t_Output": 1086.1 }, "geometry": { "type": "Point", "coordinates": [ -76.4511, 43.495 ] } },
{ "type": "Feature", "properties": { "Name": "Longfalls Facility", "description": "<p>\nFuel: Conventional Hydroelectric<br\/>\nNameplate Output: 3.3", "Plant_Code": 54548, "Plant_Name": "Longfalls Facility", "State": "NY", "Zip": "13619", "County": "Jefferson", "Latitude": 43.980806, "Longitude": -75.624677, "t_Fuels": "Conventional Hydroelectric", "t_Output": 3.3 }, "geometry": { "type": "Point", "coordinates": [ -75.624677, 43.980806 ] } },
{ "type": "Feature", "properties": { "Name": "General Mills Inc", "description": "<p>\nFuel: Natural Gas Fired Combustion Turbine<br\/>\nNameplate Output: 3.8", "Plant_Code": 54564, "Plant_Name": "General Mills Inc", "State": "NY", "Zip": "14203", "County": "Erie", "Latitude": 42.870968, "Longitude": -78.875549, "t_Fuels": "Natural Gas Fired Combustion Turbine", "t_Output": 3.8 }, "geometry": { "type": "Point", "coordinates": [ -78.875549, 42.870968 ] } },
{ "type": "Feature", "properties": { "Name": "Wappinger Falls Hydroelectric", "description": "<p>\nFuel: Conventional Hydroelectric<br\/>\nNameplate Output: 2.0", "Plant_Code": 54573, "Plant_Name": "Wappinger Falls Hydroelectric", "State": "NY", "Zip": "12590", "County": "Dutchess", "Latitude": 41.598395, "Longitude": -73.922036, "t_Fuels": "Conventional Hydroelectric", "t_Output": 2.0 }, "geometry": { "type": "Point", "coordinates": [ -73.922036, 41.598395 ] } },
{ "type": "Feature", "properties": { "Name": "Saranac Facility", "description": "<p>\nFuel: Natural Gas Fired Combined Cycle<br\/>\nNameplate Output: 285.6", "Plant_Code": 54574, "Plant_Name": "Saranac Facility", "State": "NY", "Zip": "12901", "County": "Clinton", "Latitude": 44.7132, "Longitude": -73.4557, "t_Fuels": "Natural Gas Fired Combined Cycle", "t_Output": 285.6 }, "geometry": { "type": "Point", "coordinates": [ -73.4557, 44.7132 ] } },
{ "type": "Feature", "properties": { "Name": "Curtis Palmer Hydroelectric", "description": "<p>\nFuel: Conventional Hydroelectric<br\/>\nNameplate Output: 59.0", "Plant_Code": 54580, "Plant_Name": "Curtis Palmer Hydroelectric", "State": "NY", "Zip": "12822", "County": "Saratoga", "Latitude": 43.2469, "Longitude": -73.8281, "t_Fuels": "Conventional Hydroelectric", "t_Output": 59.0 }, "geometry": { "type": "Point", "coordinates": [ -73.8281, 43.2469 ] } },
{ "type": "Feature", "properties": { "Name": "Massena Energy Facility", "description": "<p>\nFuel: Natural Gas Fired Combined Cycle, Petroleum Liquids<br\/>\nNameplate Output: 104.1", "Plant_Code": 54592, "Plant_Name": "Massena Energy Facility", "State": "NY", "Zip": "13662", "County": "St Lawrence", "Latitude": 44.9503, "Longitude": -74.8928, "t_Fuels": "Natural Gas Fired Combined Cycle, Petroleum Liquids", "t_Output": 104.1 }, "geometry": { "type": "Point", "coordinates": [ -74.8928, 44.9503 ] } },
{ "type": "Feature", "properties": { "Name": "Batavia Power Plant", "description": "<p>\nFuel: Natural Gas Fired Combined Cycle, Petroleum Liquids<br\/>\nNameplate Output: 67.3", "Plant_Code": 54593, "Plant_Name": "Batavia Power Plant", "State": "NY", "Zip": "14020", "County": "Genesee", "Latitude": 42.9828, "Longitude": -78.1592, "t_Fuels": "Natural Gas Fired Combined Cycle, Petroleum Liquids", "t_Output": 67.3 }, "geometry": { "type": "Point", "coordinates": [ -78.1592, 42.9828 ] } },
{ "type": "Feature", "properties": { "Name": "Lower Beaver Falls Project", "description": "<p>\nFuel: Conventional Hydroelectric<br\/>\nNameplate Output: 1.0", "Plant_Code": 54691, "Plant_Name": "Lower Beaver Falls Project", "State": "NY", "Zip": "13620", "County": "Lewis", "Latitude": 43.884444, "Longitude": -75.430556, "t_Fuels": "Conventional Hydroelectric", "t_Output": 1.0 }, "geometry": { "type": "Point", "coordinates": [ -75.430556, 43.884444 ] } },
{ "type": "Feature", "properties": { "Name": "NYU Luthern Medical Center", "description": "<p>\nFuel: Natural Gas Internal Combustion Engine, Petroleum Liquids<br\/>\nNameplate Output: 4.6", "Plant_Code": 54769, "Plant_Name": "NYU Luthern Medical Center", "State": "NY", "Zip": "11220", "County": "Kings", "Latitude": 40.6467, "Longitude": -74.0211, "t_Fuels": "Natural Gas Internal Combustion Engine, Petroleum Liquids", "t_Output": 4.6 }, "geometry": { "type": "Point", "coordinates": [ -74.0211, 40.6467 ] } },
{ "type": "Feature", "properties": { "Name": "South Glens Falls Hydroelectric", "description": "<p>\nFuel: Conventional Hydroelectric<br\/>\nNameplate Output: 13.8", "Plant_Code": 54772, "Plant_Name": "South Glens Falls Hydroelectric", "State": "NY", "Zip": "12803", "County": "Saratoga", "Latitude": 43.304413, "Longitude": -73.63993, "t_Fuels": "Conventional Hydroelectric", "t_Output": 13.8 }, "geometry": { "type": "Point", "coordinates": [ -73.63993, 43.304413 ] } },
{ "type": "Feature", "properties": { "Name": "Seneca Energy", "description": "<p>\nFuel: Landfill Gas<br\/>\nNameplate Output: 17.6", "Plant_Code": 54782, "Plant_Name": "Seneca Energy", "State": "NY", "Zip": "13148", "County": "Seneca", "Latitude": 42.9281, "Longitude": -76.8408, "t_Fuels": "Landfill Gas", "t_Output": 17.6 }, "geometry": { "type": "Point", "coordinates": [ -76.8408, 42.9281 ] } },
{ "type": "Feature", "properties": { "Name": "New York University Central Plant", "description": "<p>\nFuel: Natural Gas Fired Combined Cycle, Petroleum Liquids<br\/>\nNameplate Output: 19.0", "Plant_Code": 54808, "Plant_Name": "New York University Central Plant", "State": "NY", "Zip": "10012", "County": "New York", "Latitude": 40.7899, "Longitude": -73.9233, "t_Fuels": "Natural Gas Fired Combined Cycle, Petroleum Liquids", "t_Output": 19.0 }, "geometry": { "type": "Point", "coordinates": [ -73.9233, 40.7899 ] } },
{ "type": "Feature", "properties": { "Name": "Bassett Medical Center", "description": "<p>\nFuel: Petroleum Liquids<br\/>\nNameplate Output: 5.6", "Plant_Code": 54863, "Plant_Name": "Bassett Medical Center", "State": "NY", "Zip": "13326", "County": "Otsego", "Latitude": 42.6944, "Longitude": -74.9242, "t_Fuels": "Petroleum Liquids", "t_Output": 5.6 }, "geometry": { "type": "Point", "coordinates": [ -74.9242, 42.6944 ] } },
{ "type": "Feature", "properties": { "Name": "Phoenix Hydro Project", "description": "<p>\nFuel: Conventional Hydroelectric<br\/>\nNameplate Output: 3.2", "Plant_Code": 54865, "Plant_Name": "Phoenix Hydro Project", "State": "NY", "Zip": "13135", "County": "Oswego", "Latitude": 43.227058, "Longitude": -76.302137, "t_Fuels": "Conventional Hydroelectric", "t_Output": 3.2 }, "geometry": { "type": "Point", "coordinates": [ -76.302137, 43.227058 ] } },
{ "type": "Feature", "properties": { "Name": "Dunn Paper", "description": "<p>\nFuel: Conventional Hydroelectric<br\/>\nNameplate Output: 1.0", "Plant_Code": 54878, "Plant_Name": "Dunn Paper", "State": "NY", "Zip": "13642", "County": "St Lawrence", "Latitude": 44.336358, "Longitude": -75.50274, "t_Fuels": "Conventional Hydroelectric", "t_Output": 1.0 }, "geometry": { "type": "Point", "coordinates": [ -75.50274, 44.336358 ] } },
{ "type": "Feature", "properties": { "Name": "Brooklyn Navy Yard Cogeneration", "description": "<p>\nFuel: Natural Gas Fired Combined Cycle<br\/>\nNameplate Output: 322.0", "Plant_Code": 54914, "Plant_Name": "Brooklyn Navy Yard Cogeneration", "State": "NY", "Zip": "11205", "County": "Kings", "Latitude": 40.699357, "Longitude": -73.976392, "t_Fuels": "Natural Gas Fired Combined Cycle", "t_Output": 322.0 }, "geometry": { "type": "Point", "coordinates": [ -73.976392, 40.699357 ] } },
{ "type": "Feature", "properties": { "Name": "Hudson Falls Hydroelectric Project", "description": "<p>\nFuel: Conventional Hydroelectric<br\/>\nNameplate Output: 44.0", "Plant_Code": 54953, "Plant_Name": "Hudson Falls Hydroelectric Project", "State": "NY", "Zip": "12803", "County": "Saratoga", "Latitude": 43.2958, "Longitude": -73.5956, "t_Fuels": "Conventional Hydroelectric", "t_Output": 44.0 }, "geometry": { "type": "Point", "coordinates": [ -73.5956, 43.2958 ] } },
{ "type": "Feature", "properties": { "Name": "MM Albany Energy", "description": "<p>\nFuel: Landfill Gas<br\/>\nNameplate Output: 5.9", "Plant_Code": 55155, "Plant_Name": "MM Albany Energy", "State": "NY", "Zip": "14094", "County": "Albany", "Latitude": 42.704391, "Longitude": -73.850866, "t_Fuels": "Landfill Gas", "t_Output": 5.9 }, "geometry": { "type": "Point", "coordinates": [ -73.850866, 42.704391 ] } },
{ "type": "Feature", "properties": { "Name": "Astoria Gas Turbines", "description": "<p>\nFuel: Natural Gas Fired Combustion Turbine, Petroleum Liquids<br\/>\nNameplate Output: 646.9", "Plant_Code": 55243, "Plant_Name": "Astoria Gas Turbines", "State": "NY", "Zip": "11105", "County": "Queens", "Latitude": 40.787, "Longitude": -73.9048, "t_Fuels": "Natural Gas Fired Combustion Turbine, Petroleum Liquids", "t_Output": 646.9 }, "geometry": { "type": "Point", "coordinates": [ -73.9048, 40.787 ] } },
{ "type": "Feature", "properties": { "Name": "Wethersfield Wind Farm", "description": "<p>\nFuel: Onshore Wind Turbine<br\/>\nNameplate Output: 6.6", "Plant_Code": 55368, "Plant_Name": "Wethersfield Wind Farm", "State": "NY", "Zip": "14066", "County": "Wyoming", "Latitude": 42.678819, "Longitude": -78.243792, "t_Fuels": "Onshore Wind Turbine", "t_Output": 6.6 }, "geometry": { "type": "Point", "coordinates": [ -78.243792, 42.678819 ] } },
{ "type": "Feature", "properties": { "Name": "Astoria Energy", "description": "<p>\nFuel: Natural Gas Fired Combined Cycle<br\/>\nNameplate Output: 595.0", "Plant_Code": 55375, "Plant_Name": "Astoria Energy", "State": "NY", "Zip": "11105", "County": "Queens", "Latitude": 40.7825, "Longitude": -73.8964, "t_Fuels": "Natural Gas Fired Combined Cycle", "t_Output": 595.0 }, "geometry": { "type": "Point", "coordinates": [ -73.8964, 40.7825 ] } },
{ "type": "Feature", "properties": { "Name": "Athens Generating Plant", "description": "<p>\nFuel: Natural Gas Fired Combined Cycle<br\/>\nNameplate Output: 1323.0", "Plant_Code": 55405, "Plant_Name": "Athens Generating Plant", "State": "NY", "Zip": "12015", "County": "Greene", "Latitude": 42.2728, "Longitude": -73.8492, "t_Fuels": "Natural Gas Fired Combined Cycle", "t_Output": 1323.0 }, "geometry": { "type": "Point", "coordinates": [ -73.8492, 42.2728 ] } },
{ "type": "Feature", "properties": { "Name": "Binghamton Cogen", "description": "<p>\nFuel: Natural Gas Fired Combustion Turbine<br\/>\nNameplate Output: 47.7", "Plant_Code": 55600, "Plant_Name": "Binghamton Cogen", "State": "NY", "Zip": "13905", "County": "Broome", "Latitude": 42.107192, "Longitude": -75.927782, "t_Fuels": "Natural Gas Fired Combustion Turbine", "t_Output": 47.7 }, "geometry": { "type": "Point", "coordinates": [ -75.927782, 42.107192 ] } },
{ "type": "Feature", "properties": { "Name": "Watchtower Educational Center", "description": "<p>\nFuel: Natural Gas Internal Combustion Engine, Petroleum Liquids<br\/>\nNameplate Output: 2.1", "Plant_Code": 55619, "Plant_Name": "Watchtower Educational Center", "State": "NY", "Zip": "12563", "County": "Putnam", "Latitude": 41.498392, "Longitude": -73.57456, "t_Fuels": "Natural Gas Internal Combustion Engine, Petroleum Liquids", "t_Output": 2.1 }, "geometry": { "type": "Point", "coordinates": [ -73.57456, 41.498392 ] } },
{ "type": "Feature", "properties": { "Name": "Bayswater Peaking Facility LLC", "description": "<p>\nFuel: Natural Gas Fired Combustion Turbine<br\/>\nNameplate Output: 60.5", "Plant_Code": 55699, "Plant_Name": "Bayswater Peaking Facility LLC", "State": "NY", "Zip": "11691", "County": "Queens", "Latitude": 40.610654, "Longitude": -73.762218, "t_Fuels": "Natural Gas Fired Combustion Turbine", "t_Output": 60.5 }, "geometry": { "type": "Point", "coordinates": [ -73.762218, 40.610654 ] } },
{ "type": "Feature", "properties": { "Name": "Model City Energy Facility", "description": "<p>\nFuel: Landfill Gas<br\/>\nNameplate Output: 5.6", "Plant_Code": 55757, "Plant_Name": "Model City Energy Facility", "State": "NY", "Zip": "14174", "County": "Niagara", "Latitude": 43.2094, "Longitude": -78.9836, "t_Fuels": "Landfill Gas", "t_Output": 5.6 }, "geometry": { "type": "Point", "coordinates": [ -78.9836, 43.2094 ] } },
{ "type": "Feature", "properties": { "Name": "Madison Windpower LLC", "description": "<p>\nFuel: Onshore Wind Turbine<br\/>\nNameplate Output: 11.5", "Plant_Code": 55769, "Plant_Name": "Madison Windpower LLC", "State": "NY", "Zip": "13402", "County": "Madison", "Latitude": 42.894722, "Longitude": -75.451666, "t_Fuels": "Onshore Wind Turbine", "t_Output": 11.5 }, "geometry": { "type": "Point", "coordinates": [ -75.451666, 42.894722 ] } },
{ "type": "Feature", "properties": { "Name": "Edgewood Energy LLC", "description": "<p>\nFuel: Natural Gas Fired Combustion Turbine<br\/>\nNameplate Output: 100.0", "Plant_Code": 55786, "Plant_Name": "Edgewood Energy LLC", "State": "NY", "Zip": "11717", "County": "Suffolk", "Latitude": 40.7861, "Longitude": -73.2931, "t_Fuels": "Natural Gas Fired Combustion Turbine", "t_Output": 100.0 }, "geometry": { "type": "Point", "coordinates": [ -73.2931, 40.7861 ] } },
{ "type": "Feature", "properties": { "Name": "Shoreham Energy LLC", "description": "<p>\nFuel: Petroleum Liquids<br\/>\nNameplate Output: 100.0", "Plant_Code": 55787, "Plant_Name": "Shoreham Energy LLC", "State": "NY", "Zip": "11719", "County": "Suffolk", "Latitude": 40.957053, "Longitude": -72.865877, "t_Fuels": "Petroleum Liquids", "t_Output": 100.0 }, "geometry": { "type": "Point", "coordinates": [ -72.865877, 40.957053 ] } },
{ "type": "Feature", "properties": { "Name": "Fenner Wind", "description": "<p>\nFuel: Onshore Wind Turbine<br\/>\nNameplate Output: 30.0", "Plant_Code": 55790, "Plant_Name": "Fenner Wind", "State": "NY", "Zip": "13035", "County": "Madison", "Latitude": 42.988989, "Longitude": -75.762536, "t_Fuels": "Onshore Wind Turbine", "t_Output": 30.0 }, "geometry": { "type": "Point", "coordinates": [ -75.762536, 42.988989 ] } },
{ "type": "Feature", "properties": { "Name": "Hawkeye Energy Greenport LLC", "description": "<p>\nFuel: Petroleum Liquids<br\/>\nNameplate Output: 54.0", "Plant_Code": 55969, "Plant_Name": "Hawkeye Energy Greenport LLC", "State": "NY", "Zip": "11944", "County": "Suffolk", "Latitude": 41.10603, "Longitude": -72.376155, "t_Fuels": "Petroleum Liquids", "t_Output": 54.0 }, "geometry": { "type": "Point", "coordinates": [ -72.376155, 41.10603 ] } },
{ "type": "Feature", "properties": { "Name": "Equus Freeport Power", "description": "<p>\nFuel: Natural Gas Fired Combustion Turbine<br\/>\nNameplate Output: 120.0", "Plant_Code": 56032, "Plant_Name": "Equus Freeport Power", "State": "NY", "Zip": "11520", "County": "Nassau", "Latitude": 40.6439, "Longitude": -73.5683, "t_Fuels": "Natural Gas Fired Combustion Turbine", "t_Output": 120.0 }, "geometry": { "type": "Point", "coordinates": [ -73.5683, 40.6439 ] } },
{ "type": "Feature", "properties": { "Name": "Jamaica Bay Peaking", "description": "<p>\nFuel: Petroleum Liquids<br\/>\nNameplate Output: 60.5", "Plant_Code": 56141, "Plant_Name": "Jamaica Bay Peaking", "State": "NY", "Zip": "11691", "County": "Queens", "Latitude": 40.6097, "Longitude": -73.7622, "t_Fuels": "Petroleum Liquids", "t_Output": 60.5 }, "geometry": { "type": "Point", "coordinates": [ -73.7622, 40.6097 ] } },
{ "type": "Feature", "properties": { "Name": "Pinelawn Power LLC", "description": "<p>\nFuel: Natural Gas Fired Combined Cycle<br\/>\nNameplate Output: 82.0", "Plant_Code": 56188, "Plant_Name": "Pinelawn Power LLC", "State": "NY", "Zip": "11704", "County": "Suffolk", "Latitude": 40.736611, "Longitude": -73.388424, "t_Fuels": "Natural Gas Fired Combined Cycle", "t_Output": 82.0 }, "geometry": { "type": "Point", "coordinates": [ -73.388424, 40.736611 ] } },
{ "type": "Feature", "properties": { "Name": "500MW CC", "description": "<p>\nFuel: Natural Gas Fired Combined Cycle<br\/>\nNameplate Output: 528.0", "Plant_Code": 56196, "Plant_Name": "500MW CC", "State": "NY", "Zip": "11105", "County": "Queens", "Latitude": 40.7889, "Longitude": -73.9069, "t_Fuels": "Natural Gas Fired Combined Cycle", "t_Output": 528.0 }, "geometry": { "type": "Point", "coordinates": [ -73.9069, 40.7889 ] } },
{ "type": "Feature", "properties": { "Name": "Caithness Long Island Energy Center", "description": "<p>\nFuel: Natural Gas Fired Combined Cycle<br\/>\nNameplate Output: 348.9", "Plant_Code": 56234, "Plant_Name": "Caithness Long Island Energy Center", "State": "NY", "Zip": "11980", "County": "Suffolk", "Latitude": 40.8142, "Longitude": -72.9403, "t_Fuels": "Natural Gas Fired Combined Cycle", "t_Output": 348.9 }, "geometry": { "type": "Point", "coordinates": [ -72.9403, 40.8142 ] } },
{ "type": "Feature", "properties": { "Name": "Ontario LFGTE", "description": "<p>\nFuel: Landfill Gas<br\/>\nNameplate Output: 11.2", "Plant_Code": 56250, "Plant_Name": "Ontario LFGTE", "State": "NY", "Zip": "14561", "County": "Ontario", "Latitude": 42.8586, "Longitude": -77.0872, "t_Fuels": "Landfill Gas", "t_Output": 11.2 }, "geometry": { "type": "Point", "coordinates": [ -77.0872, 42.8586 ] } },
{ "type": "Feature", "properties": { "Name": "Empire Generating Co  LLC", "description": "<p>\nFuel: Natural Gas Fired Combined Cycle<br\/>\nNameplate Output: 653.7", "Plant_Code": 56259, "Plant_Name": "Empire Generating Co  LLC", "State": "NY", "Zip": "12144", "County": "Rensselaer", "Latitude": 42.625239, "Longitude": -73.750021, "t_Fuels": "Natural Gas Fired Combined Cycle", "t_Output": 653.7 }, "geometry": { "type": "Point", "coordinates": [ -73.750021, 42.625239 ] } },
{ "type": "Feature", "properties": { "Name": "Maple Ridge Wind Farm", "description": "<p>\nFuel: Onshore Wind Turbine<br\/>\nNameplate Output: 322.0", "Plant_Code": 56290, "Plant_Name": "Maple Ridge Wind Farm", "State": "NY", "Zip": "13367", "County": "Lewis", "Latitude": 43.7853, "Longitude": -75.5753, "t_Fuels": "Onshore Wind Turbine", "t_Output": 322.0 }, "geometry": { "type": "Point", "coordinates": [ -75.5753, 43.7853 ] } },
{ "type": "Feature", "properties": { "Name": "Modern Innovative Energy LLC", "description": "<p>\nFuel: Landfill Gas<br\/>\nNameplate Output: 6.4", "Plant_Code": 56323, "Plant_Name": "Modern Innovative Energy LLC", "State": "NY", "Zip": "14174", "County": "Niagara", "Latitude": 43.2094, "Longitude": -78.9836, "t_Fuels": "Landfill Gas", "t_Output": 6.4 }, "geometry": { "type": "Point", "coordinates": [ -78.9836, 43.2094 ] } },
{ "type": "Feature", "properties": { "Name": "Colonie LFGTE Facility", "description": "<p>\nFuel: Landfill Gas<br\/>\nNameplate Output: 6.4", "Plant_Code": 56324, "Plant_Name": "Colonie LFGTE Facility", "State": "NY", "Zip": "12047", "County": "Albany", "Latitude": 42.803325, "Longitude": -73.726741, "t_Fuels": "Landfill Gas", "t_Output": 6.4 }, "geometry": { "type": "Point", "coordinates": [ -73.726741, 42.803325 ] } },
{ "type": "Feature", "properties": { "Name": "Chaffee Gas Recovery", "description": "<p>\nFuel: Landfill Gas<br\/>\nNameplate Output: 6.4", "Plant_Code": 56526, "Plant_Name": "Chaffee Gas Recovery", "State": "NY", "Zip": "14030", "County": "Erie", "Latitude": 42.5831, "Longitude": -78.4864, "t_Fuels": "Landfill Gas", "t_Output": 6.4 }, "geometry": { "type": "Point", "coordinates": [ -78.4864, 42.5831 ] } },
{ "type": "Feature", "properties": { "Name": "Steel Winds Wind Farm", "description": "<p>\nFuel: Onshore Wind Turbine<br\/>\nNameplate Output: 20.0", "Plant_Code": 56575, "Plant_Name": "Steel Winds Wind Farm", "State": "NY", "Zip": "12418", "County": "Erie", "Latitude": 42.8167, "Longitude": -78.8675, "t_Fuels": "Onshore Wind Turbine", "t_Output": 20.0 }, "geometry": { "type": "Point", "coordinates": [ -78.8675, 42.8167 ] } },
{ "type": "Feature", "properties": { "Name": "Munnsville Wind Farm LLC", "description": "<p>\nFuel: Onshore Wind Turbine<br\/>\nNameplate Output: 34.5", "Plant_Code": 56594, "Plant_Name": "Munnsville Wind Farm LLC", "State": "NY", "Zip": "13310", "County": "Madison", "Latitude": 42.9086, "Longitude": -75.5697, "t_Fuels": "Onshore Wind Turbine", "t_Output": 34.5 }, "geometry": { "type": "Point", "coordinates": [ -75.5697, 42.9086 ] } },
{ "type": "Feature", "properties": { "Name": "Noble Clinton Windpark LLC", "description": "<p>\nFuel: Onshore Wind Turbine<br\/>\nNameplate Output: 100.5", "Plant_Code": 56618, "Plant_Name": "Noble Clinton Windpark LLC", "State": "NY", "Zip": "12923", "County": "Clinton", "Latitude": 44.8914, "Longitude": -74.0061, "t_Fuels": "Onshore Wind Turbine", "t_Output": 100.5 }, "geometry": { "type": "Point", "coordinates": [ -74.0061, 44.8914 ] } },
{ "type": "Feature", "properties": { "Name": "Noble Ellenburg Windpark LLC", "description": "<p>\nFuel: Onshore Wind Turbine<br\/>\nNameplate Output: 81.0", "Plant_Code": 56619, "Plant_Name": "Noble Ellenburg Windpark LLC", "State": "NY", "Zip": "12923", "County": "Clinton", "Latitude": 44.8914, "Longitude": -74.0061, "t_Fuels": "Onshore Wind Turbine", "t_Output": 81.0 }, "geometry": { "type": "Point", "coordinates": [ -74.0061, 44.8914 ] } },
{ "type": "Feature", "properties": { "Name": "Noble Bliss Windpark LLC", "description": "<p>\nFuel: Onshore Wind Turbine<br\/>\nNameplate Output: 100.5", "Plant_Code": 56620, "Plant_Name": "Noble Bliss Windpark LLC", "State": "NY", "Zip": "14024", "County": "Wyoming", "Latitude": 42.5367, "Longitude": -78.3047, "t_Fuels": "Onshore Wind Turbine", "t_Output": 100.5 }, "geometry": { "type": "Point", "coordinates": [ -78.3047, 42.5367 ] } },
{ "type": "Feature", "properties": { "Name": "Dutch Hill Wind Project", "description": "<p>\nFuel: Onshore Wind Turbine<br\/>\nNameplate Output: 37.5", "Plant_Code": 56633, "Plant_Name": "Dutch Hill Wind Project", "State": "NY", "Zip": "14826", "County": "Steuben", "Latitude": 42.5456, "Longitude": -77.4967, "t_Fuels": "Onshore Wind Turbine", "t_Output": 37.5 }, "geometry": { "type": "Point", "coordinates": [ -77.4967, 42.5456 ] } },
{ "type": "Feature", "properties": { "Name": "Cohocton Wind Project", "description": "<p>\nFuel: Onshore Wind Turbine<br\/>\nNameplate Output: 87.5", "Plant_Code": 56634, "Plant_Name": "Cohocton Wind Project", "State": "NY", "Zip": "14826", "County": "Steuben", "Latitude": 42.45, "Longitude": -77.52, "t_Fuels": "Onshore Wind Turbine", "t_Output": 87.5 }, "geometry": { "type": "Point", "coordinates": [ -77.52, 42.45 ] } },
{ "type": "Feature", "properties": { "Name": "Lyons Falls Hydroelectric", "description": "<p>\nFuel: Conventional Hydroelectric<br\/>\nNameplate Output: 5.5", "Plant_Code": 56703, "Plant_Name": "Lyons Falls Hydroelectric", "State": "NY", "Zip": "13368", "County": "Lewis", "Latitude": 43.61863, "Longitude": -75.358577, "t_Fuels": "Conventional Hydroelectric", "t_Output": 5.5 }, "geometry": { "type": "Point", "coordinates": [ -75.358577, 43.61863 ] } },
{ "type": "Feature", "properties": { "Name": "Gouldtown", "description": "<p>\nFuel: Conventional Hydroelectric<br\/>\nNameplate Output: 2.0", "Plant_Code": 56704, "Plant_Name": "Gouldtown", "State": "NY", "Zip": "13368", "County": "Lewis", "Latitude": 43.612619, "Longitude": -75.339072, "t_Fuels": "Conventional Hydroelectric", "t_Output": 2.0 }, "geometry": { "type": "Point", "coordinates": [ -75.339072, 43.612619 ] } },
{ "type": "Feature", "properties": { "Name": "Kosterville", "description": "<p>\nFuel: Conventional Hydroelectric<br\/>\nNameplate Output: 1.0", "Plant_Code": 56705, "Plant_Name": "Kosterville", "State": "NY", "Zip": "13368", "County": "Lewis", "Latitude": 43.614218, "Longitude": -75.332705, "t_Fuels": "Conventional Hydroelectric", "t_Output": 1.0 }, "geometry": { "type": "Point", "coordinates": [ -75.332705, 43.614218 ] } },
{ "type": "Feature", "properties": { "Name": "Marble River Wind Farm", "description": "<p>\nFuel: Onshore Wind Turbine<br\/>\nNameplate Output: 215.0", "Plant_Code": 56857, "Plant_Name": "Marble River Wind Farm", "State": "NY", "Zip": "12933", "County": "Clinton", "Latitude": 44.975833, "Longitude": -73.929722, "t_Fuels": "Onshore Wind Turbine", "t_Output": 215.0 }, "geometry": { "type": "Point", "coordinates": [ -73.929722, 44.975833 ] } },
{ "type": "Feature", "properties": { "Name": "Noble Altona Windpark LLC", "description": "<p>\nFuel: Onshore Wind Turbine<br\/>\nNameplate Output: 97.5", "Plant_Code": 56901, "Plant_Name": "Noble Altona Windpark LLC", "State": "NY", "Zip": "12910", "County": "Clinton", "Latitude": 44.8216, "Longitude": -73.6509, "t_Fuels": "Onshore Wind Turbine", "t_Output": 97.5 }, "geometry": { "type": "Point", "coordinates": [ -73.6509, 44.8216 ] } },
{ "type": "Feature", "properties": { "Name": "Noble Wethersfield Windpark LLC", "description": "<p>\nFuel: Onshore Wind Turbine<br\/>\nNameplate Output: 126.0", "Plant_Code": 56902, "Plant_Name": "Noble Wethersfield Windpark LLC", "State": "NY", "Zip": "14066", "County": "Wyoming", "Latitude": 42.6697, "Longitude": -78.2278, "t_Fuels": "Onshore Wind Turbine", "t_Output": 126.0 }, "geometry": { "type": "Point", "coordinates": [ -78.2278, 42.6697 ] } },
{ "type": "Feature", "properties": { "Name": "Noble Chateaugay Windpark LLC", "description": "<p>\nFuel: Onshore Wind Turbine<br\/>\nNameplate Output: 106.5", "Plant_Code": 56904, "Plant_Name": "Noble Chateaugay Windpark LLC", "State": "NY", "Zip": "12920", "County": "Franklin", "Latitude": 44.8917, "Longitude": -74.0299, "t_Fuels": "Onshore Wind Turbine", "t_Output": 106.5 }, "geometry": { "type": "Point", "coordinates": [ -74.0299, 44.8917 ] } },
{ "type": "Feature", "properties": { "Name": "Brookfield Power Glen Falls Hydro", "description": "<p>\nFuel: Conventional Hydroelectric<br\/>\nNameplate Output: 11.8", "Plant_Code": 56936, "Plant_Name": "Brookfield Power Glen Falls Hydro", "State": "NY", "Zip": "12801", "County": "Warren", "Latitude": 43.308505, "Longitude": -73.636584, "t_Fuels": "Conventional Hydroelectric", "t_Output": 11.8 }, "geometry": { "type": "Point", "coordinates": [ -73.636584, 43.308505 ] } },
{ "type": "Feature", "properties": { "Name": "High Sheldon Wind Farm", "description": "<p>\nFuel: Onshore Wind Turbine<br\/>\nNameplate Output: 112.0", "Plant_Code": 56953, "Plant_Name": "High Sheldon Wind Farm", "State": "NY", "Zip": "14167", "County": "Wyoming", "Latitude": 42.7794, "Longitude": -78.4269, "t_Fuels": "Onshore Wind Turbine", "t_Output": 112.0 }, "geometry": { "type": "Point", "coordinates": [ -78.4269, 42.7794 ] } },
{ "type": "Feature", "properties": { "Name": "DANC LFGTE Facility", "description": "<p>\nFuel: Landfill Gas<br\/>\nNameplate Output: 6.4", "Plant_Code": 56958, "Plant_Name": "DANC LFGTE Facility", "State": "NY", "Zip": "13682", "County": "Jefferson", "Latitude": 43.82, "Longitude": -75.9175, "t_Fuels": "Landfill Gas", "t_Output": 6.4 }, "geometry": { "type": "Point", "coordinates": [ -75.9175, 43.82 ] } },
{ "type": "Feature", "properties": { "Name": "Clinton LFGTE Facility", "description": "<p>\nFuel: Landfill Gas<br\/>\nNameplate Output: 6.4", "Plant_Code": 56986, "Plant_Name": "Clinton LFGTE Facility", "State": "NY", "Zip": "12962", "County": "Clinton", "Latitude": 44.6917, "Longitude": -73.5944, "t_Fuels": "Landfill Gas", "t_Output": 6.4 }, "geometry": { "type": "Point", "coordinates": [ -73.5944, 44.6917 ] } },
{ "type": "Feature", "properties": { "Name": "Hyland LFGTE Facility", "description": "<p>\nFuel: Landfill Gas<br\/>\nNameplate Output: 4.8", "Plant_Code": 56987, "Plant_Name": "Hyland LFGTE Facility", "State": "NY", "Zip": "14709", "County": "Allegany", "Latitude": 42.2853, "Longitude": -78.0061, "t_Fuels": "Landfill Gas", "t_Output": 4.8 }, "geometry": { "type": "Point", "coordinates": [ -78.0061, 42.2853 ] } },
{ "type": "Feature", "properties": { "Name": "Fulton LFGTE Facility", "description": "<p>\nFuel: Landfill Gas<br\/>\nNameplate Output: 3.2", "Plant_Code": 57003, "Plant_Name": "Fulton LFGTE Facility", "State": "NY", "Zip": "12095", "County": "Fulton", "Latitude": 43.0142, "Longitude": -74.4739, "t_Fuels": "Landfill Gas", "t_Output": 3.2 }, "geometry": { "type": "Point", "coordinates": [ -74.4739, 43.0142 ] } },
{ "type": "Feature", "properties": { "Name": "Waste Management Madison County LFGTE", "description": "<p>\nFuel: Landfill Gas<br\/>\nNameplate Output: 1.6", "Plant_Code": 57021, "Plant_Name": "Waste Management Madison County LFGTE", "State": "NY", "Zip": "13032", "County": "Madison", "Latitude": 43.0336, "Longitude": -75.7028, "t_Fuels": "Landfill Gas", "t_Output": 1.6 }, "geometry": { "type": "Point", "coordinates": [ -75.7028, 43.0336 ] } },
{ "type": "Feature", "properties": { "Name": "Steel Winds II", "description": "<p>\nFuel: Onshore Wind Turbine<br\/>\nNameplate Output: 15.0", "Plant_Code": 57078, "Plant_Name": "Steel Winds II", "State": "NY", "Zip": "14218", "County": "Erie", "Latitude": 42.8072, "Longitude": -78.8617, "t_Fuels": "Onshore Wind Turbine", "t_Output": 15.0 }, "geometry": { "type": "Point", "coordinates": [ -78.8617, 42.8072 ] } },
{ "type": "Feature", "properties": { "Name": "Chautauqua LFGTE Facility", "description": "<p>\nFuel: Landfill Gas<br\/>\nNameplate Output: 9.6", "Plant_Code": 57186, "Plant_Name": "Chautauqua LFGTE Facility", "State": "NY", "Zip": "14701", "County": "Chautauqua", "Latitude": 42.1989, "Longitude": -79.3186, "t_Fuels": "Landfill Gas", "t_Output": 9.6 }, "geometry": { "type": "Point", "coordinates": [ -79.3186, 42.1989 ] } },
{ "type": "Feature", "properties": { "Name": "Hardscrabble Wind Power LLC", "description": "<p>\nFuel: Onshore Wind Turbine<br\/>\nNameplate Output: 74.0", "Plant_Code": 57287, "Plant_Name": "Hardscrabble Wind Power LLC", "State": "NY", "Zip": "13365", "County": "Herkimer", "Latitude": 43.112222, "Longitude": -74.878888, "t_Fuels": "Onshore Wind Turbine", "t_Output": 74.0 }, "geometry": { "type": "Point", "coordinates": [ -74.878888, 43.112222 ] } },
{ "type": "Feature", "properties": { "Name": "Oneida Herkimer", "description": "<p>\nFuel: Landfill Gas<br\/>\nNameplate Output: 3.2", "Plant_Code": 57404, "Plant_Name": "Oneida Herkimer", "State": "NY", "Zip": "13309", "County": "Oneida", "Latitude": 43.462222, "Longitude": -75.418333, "t_Fuels": "Landfill Gas", "t_Output": 3.2 }, "geometry": { "type": "Point", "coordinates": [ -75.418333, 43.462222 ] } },
{ "type": "Feature", "properties": { "Name": "Long Island Solar Farm LLC", "description": "<p>\nFuel: Solar Photovoltaic<br\/>\nNameplate Output: 31.5", "Plant_Code": 57589, "Plant_Name": "Long Island Solar Farm LLC", "State": "NY", "Zip": "11949", "County": "Suffolk", "Latitude": 40.861111, "Longitude": -72.847777, "t_Fuels": "Solar Photovoltaic", "t_Output": 31.5 }, "geometry": { "type": "Point", "coordinates": [ -72.847777, 40.861111 ] } },
{ "type": "Feature", "properties": { "Name": "Fishers Island 1", "description": "<p>\nFuel: Petroleum Liquids<br\/>\nNameplate Output: 2.6", "Plant_Code": 57600, "Plant_Name": "Fishers Island 1", "State": "NY", "Zip": "06390", "County": "Suffolk", "Latitude": 41.268611, "Longitude": -72.01, "t_Fuels": "Petroleum Liquids", "t_Output": 2.6 }, "geometry": { "type": "Point", "coordinates": [ -72.01, 41.268611 ] } },
{ "type": "Feature", "properties": { "Name": "Auburn LFG Energy Facility", "description": "<p>\nFuel: Landfill Gas<br\/>\nNameplate Output: 2.2", "Plant_Code": 57636, "Plant_Name": "Auburn LFG Energy Facility", "State": "NY", "Zip": "13021", "County": "Cayuga", "Latitude": 42.944093, "Longitude": -76.593944, "t_Fuels": "Landfill Gas", "t_Output": 2.2 }, "geometry": { "type": "Point", "coordinates": [ -76.593944, 42.944093 ] } },
{ "type": "Feature", "properties": { "Name": "Zotos International WPGF", "description": "<p>\nFuel: Onshore Wind Turbine<br\/>\nNameplate Output: 3.4", "Plant_Code": 57648, "Plant_Name": "Zotos International WPGF", "State": "NY", "Zip": "14456", "County": "Ontario", "Latitude": 42.886944, "Longitude": -76.968333, "t_Fuels": "Onshore Wind Turbine", "t_Output": 3.4 }, "geometry": { "type": "Point", "coordinates": [ -76.968333, 42.886944 ] } },
{ "type": "Feature", "properties": { "Name": "Astoria Energy II", "description": "<p>\nFuel: Natural Gas Fired Combined Cycle<br\/>\nNameplate Output: 650.0", "Plant_Code": 57664, "Plant_Name": "Astoria Energy II", "State": "NY", "Zip": "11105", "County": "Queens", "Latitude": 40.781321, "Longitude": -73.896618, "t_Fuels": "Natural Gas Fired Combined Cycle", "t_Output": 650.0 }, "geometry": { "type": "Point", "coordinates": [ -73.896618, 40.781321 ] } },
{ "type": "Feature", "properties": { "Name": "Stephentown Spindle", "description": "<p>\nFuel: Flywheels<br\/>\nNameplate Output: 20.0", "Plant_Code": 57710, "Plant_Name": "Stephentown Spindle", "State": "NY", "Zip": "12168", "County": "Rensselaer", "Latitude": 42.556501, "Longitude": -73.377477, "t_Fuels": "Flywheels", "t_Output": 20.0 }, "geometry": { "type": "Point", "coordinates": [ -73.377477, 42.556501 ] } },
{ "type": "Feature", "properties": { "Name": "Peak Power 1 Cogen", "description": "<p>\nFuel: Natural Gas Internal Combustion Engine<br\/>\nNameplate Output: 6.3", "Plant_Code": 57789, "Plant_Name": "Peak Power 1 Cogen", "State": "NY", "Zip": "10119", "County": "New York", "Latitude": 40.751111, "Longitude": -73.991667, "t_Fuels": "Natural Gas Internal Combustion Engine", "t_Output": 6.3 }, "geometry": { "type": "Point", "coordinates": [ -73.991667, 40.751111 ] } },
{ "type": "Feature", "properties": { "Name": "OBP Cogen", "description": "<p>\nFuel: Natural Gas Fired Combustion Turbine<br\/>\nNameplate Output: 4.6", "Plant_Code": 57798, "Plant_Name": "OBP Cogen", "State": "NY", "Zip": "10036", "County": "New York", "Latitude": 40.754865, "Longitude": -73.983248, "t_Fuels": "Natural Gas Fired Combustion Turbine", "t_Output": 4.6 }, "geometry": { "type": "Point", "coordinates": [ -73.983248, 40.754865 ] } },
{ "type": "Feature", "properties": { "Name": "Howard Wind Farm", "description": "<p>\nFuel: Onshore Wind Turbine<br\/>\nNameplate Output: 59.5", "Plant_Code": 57867, "Plant_Name": "Howard Wind Farm", "State": "NY", "Zip": "14843", "County": "Steuben", "Latitude": 42.315278, "Longitude": -77.538333, "t_Fuels": "Onshore Wind Turbine", "t_Output": 59.5 }, "geometry": { "type": "Point", "coordinates": [ -77.538333, 42.315278 ] } },
{ "type": "Feature", "properties": { "Name": "Stony Creek Wind Farm NY", "description": "<p>\nFuel: Onshore Wind Turbine<br\/>\nNameplate Output: 94.4", "Plant_Code": 58088, "Plant_Name": "Stony Creek Wind Farm NY", "State": "NY", "Zip": "14145", "County": "Wyoming", "Latitude": 42.767614, "Longitude": -78.415843, "t_Fuels": "Onshore Wind Turbine", "t_Output": 94.4 }, "geometry": { "type": "Point", "coordinates": [ -78.415843, 42.767614 ] } },
{ "type": "Feature", "properties": { "Name": "SUNY Old Westbury College", "description": "<p>\nFuel: Natural Gas Internal Combustion Engine<br\/>\nNameplate Output: 1.8", "Plant_Code": 58156, "Plant_Name": "SUNY Old Westbury College", "State": "NY", "Zip": "11568", "County": "Nassau", "Latitude": 40.797858, "Longitude": -73.565661, "t_Fuels": "Natural Gas Internal Combustion Engine", "t_Output": 1.8 }, "geometry": { "type": "Point", "coordinates": [ -73.565661, 40.797858 ] } },
{ "type": "Feature", "properties": { "Name": "University of Rochester", "description": "<p>\nFuel: Natural Gas Steam Turbine<br\/>\nNameplate Output: 25.4", "Plant_Code": 58157, "Plant_Name": "University of Rochester", "State": "NY", "Zip": "14627", "County": "Monroe", "Latitude": 43.123889, "Longitude": -77.628889, "t_Fuels": "Natural Gas Steam Turbine", "t_Output": 25.4 }, "geometry": { "type": "Point", "coordinates": [ -77.628889, 43.123889 ] } },
{ "type": "Feature", "properties": { "Name": "Mercy Medical Center", "description": "<p>\nFuel: Petroleum Liquids<br\/>\nNameplate Output: 2.6", "Plant_Code": 58163, "Plant_Name": "Mercy Medical Center", "State": "NY", "Zip": "11571", "County": "Nassau", "Latitude": 40.688333, "Longitude": -73.630833, "t_Fuels": "Petroleum Liquids", "t_Output": 2.6 }, "geometry": { "type": "Point", "coordinates": [ -73.630833, 40.688333 ] } },
{ "type": "Feature", "properties": { "Name": "William Floyd School District", "description": "<p>\nFuel: Natural Gas Internal Combustion Engine, Petroleum Liquids<br\/>\nNameplate Output: 3.9", "Plant_Code": 58167, "Plant_Name": "William Floyd School District", "State": "NY", "Zip": "11951", "County": "Suffolk", "Latitude": 40.776944, "Longitude": -72.850833, "t_Fuels": "Natural Gas Internal Combustion Engine, Petroleum Liquids", "t_Output": 3.9 }, "geometry": { "type": "Point", "coordinates": [ -72.850833, 40.776944 ] } },
{ "type": "Feature", "properties": { "Name": "HVCC Cogen Plant", "description": "<p>\nFuel: Natural Gas Internal Combustion Engine, Petroleum Liquids<br\/>\nNameplate Output: 8.1", "Plant_Code": 58186, "Plant_Name": "HVCC Cogen Plant", "State": "NY", "Zip": "12180", "County": "Rensselaer", "Latitude": 42.696944, "Longitude": -73.68, "t_Fuels": "Natural Gas Internal Combustion Engine, Petroleum Liquids", "t_Output": 8.1 }, "geometry": { "type": "Point", "coordinates": [ -73.68, 42.696944 ] } },
{ "type": "Feature", "properties": { "Name": "Monroe Community College Plant", "description": "<p>\nFuel: Natural Gas Internal Combustion Engine<br\/>\nNameplate Output: 6.4", "Plant_Code": 58201, "Plant_Name": "Monroe Community College Plant", "State": "NY", "Zip": "14623", "County": "Monroe", "Latitude": 43.103889, "Longitude": -77.610278, "t_Fuels": "Natural Gas Internal Combustion Engine", "t_Output": 6.4 }, "geometry": { "type": "Point", "coordinates": [ -77.610278, 43.103889 ] } },
{ "type": "Feature", "properties": { "Name": "SREC Bath LFGTE", "description": "<p>\nFuel: Landfill Gas<br\/>\nNameplate Output: 3.2", "Plant_Code": 58295, "Plant_Name": "SREC Bath LFGTE", "State": "NY", "Zip": "14810", "County": "Steuben", "Latitude": 42.322263, "Longitude": -77.385646, "t_Fuels": "Landfill Gas", "t_Output": 3.2 }, "geometry": { "type": "Point", "coordinates": [ -77.385646, 42.322263 ] } },
{ "type": "Feature", "properties": { "Name": "Synergy Biogas", "description": "<p>\nFuel: Other Waste Biomass<br\/>\nNameplate Output: 1.4", "Plant_Code": 58399, "Plant_Name": "Synergy Biogas", "State": "NY", "Zip": "14591", "County": "Wyoming", "Latitude": 42.828889, "Longitude": -78.055, "t_Fuels": "Other Waste Biomass", "t_Output": 1.4 }, "geometry": { "type": "Point", "coordinates": [ -78.055, 42.828889 ] } },
{ "type": "Feature", "properties": { "Name": "Montefieor Medical Center Moses Division", "description": "<p>\nFuel: Natural Gas Fired Combustion Turbine, Natural Gas Internal Combustion Engine, Petroleum Liquids<br\/>\nNameplate Output: 18.0", "Plant_Code": 58507, "Plant_Name": "Montefieor Medical Center Moses Division", "State": "NY", "Zip": "10467", "County": "Bronx", "Latitude": 40.881389, "Longitude": -73.880278, "t_Fuels": "Natural Gas Fired Combustion Turbine, Natural Gas Internal Combustion Engine, Petroleum Liquids", "t_Output": 18.0 }, "geometry": { "type": "Point", "coordinates": [ -73.880278, 40.881389 ] } },
{ "type": "Feature", "properties": { "Name": "Owens Corning at Bethlehem", "description": "<p>\nFuel: Solar Photovoltaic<br\/>\nNameplate Output: 2.0", "Plant_Code": 58550, "Plant_Name": "Owens Corning at Bethlehem", "State": "NY", "Zip": "12067", "County": "Albany", "Latitude": 42.586944, "Longitude": -73.865, "t_Fuels": "Solar Photovoltaic", "t_Output": 2.0 }, "geometry": { "type": "Point", "coordinates": [ -73.865, 42.586944 ] } },
{ "type": "Feature", "properties": { "Name": "Port Richmond WWT Solar", "description": "<p>\nFuel: Solar Photovoltaic<br\/>\nNameplate Output: 1.0", "Plant_Code": 58647, "Plant_Name": "Port Richmond WWT Solar", "State": "NY", "Zip": "10310", "County": "Richmond", "Latitude": 40.638056, "Longitude": -74.126111, "t_Fuels": "Solar Photovoltaic", "t_Output": 1.0 }, "geometry": { "type": "Point", "coordinates": [ -74.126111, 40.638056 ] } },
{ "type": "Feature", "properties": { "Name": "Oswegatchie", "description": "<p>\nFuel: Conventional Hydroelectric<br\/>\nNameplate Output: 1.8", "Plant_Code": 58678, "Plant_Name": "Oswegatchie", "State": "NY", "Zip": "13635", "County": "St Lawrence", "Latitude": 44.27, "Longitude": -75.199167, "t_Fuels": "Conventional Hydroelectric", "t_Output": 1.8 }, "geometry": { "type": "Point", "coordinates": [ -75.199167, 44.27 ] } },
{ "type": "Feature", "properties": { "Name": "Upper Newton Falls", "description": "<p>\nFuel: Conventional Hydroelectric<br\/>\nNameplate Output: 1.5", "Plant_Code": 58679, "Plant_Name": "Upper Newton Falls", "State": "NY", "Zip": "13666", "County": "St Lawrence", "Latitude": 44.214444, "Longitude": -74.991389, "t_Fuels": "Conventional Hydroelectric", "t_Output": 1.5 }, "geometry": { "type": "Point", "coordinates": [ -74.991389, 44.214444 ] } },
{ "type": "Feature", "properties": { "Name": "Marsh Hill Wind Farm", "description": "<p>\nFuel: Onshore Wind Turbine<br\/>\nNameplate Output: 16.2", "Plant_Code": 58768, "Plant_Name": "Marsh Hill Wind Farm", "State": "NY", "Zip": "14855", "County": "Steuben", "Latitude": 42.163889, "Longitude": -77.528889, "t_Fuels": "Onshore Wind Turbine", "t_Output": 16.2 }, "geometry": { "type": "Point", "coordinates": [ -77.528889, 42.163889 ] } },
{ "type": "Feature", "properties": { "Name": "Brentwood Solar", "description": "<p>\nFuel: Solar Photovoltaic<br\/>\nNameplate Output: 1.0", "Plant_Code": 58785, "Plant_Name": "Brentwood Solar", "State": "NY", "Zip": "11722", "County": "Suffolk", "Latitude": 40.781389, "Longitude": -73.243889, "t_Fuels": "Solar Photovoltaic", "t_Output": 1.0 }, "geometry": { "type": "Point", "coordinates": [ -73.243889, 40.781389 ] } },
{ "type": "Feature", "properties": { "Name": "Deer Park", "description": "<p>\nFuel: Solar Photovoltaic<br\/>\nNameplate Output: 2.5", "Plant_Code": 58786, "Plant_Name": "Deer Park", "State": "NY", "Zip": "11729", "County": "Suffolk", "Latitude": 40.760833, "Longitude": -73.193889, "t_Fuels": "Solar Photovoltaic", "t_Output": 2.5 }, "geometry": { "type": "Point", "coordinates": [ -73.193889, 40.760833 ] } },
{ "type": "Feature", "properties": { "Name": "Dennison", "description": "<p>\nFuel: Solar Photovoltaic<br\/>\nNameplate Output: 2.0", "Plant_Code": 58787, "Plant_Name": "Dennison", "State": "NY", "Zip": "11788", "County": "Suffolk", "Latitude": 40.763056, "Longitude": -73.323611, "t_Fuels": "Solar Photovoltaic", "t_Output": 2.0 }, "geometry": { "type": "Point", "coordinates": [ -73.323611, 40.763056 ] } },
{ "type": "Feature", "properties": { "Name": "North County", "description": "<p>\nFuel: Solar Photovoltaic<br\/>\nNameplate Output: 1.0", "Plant_Code": 58788, "Plant_Name": "North County", "State": "NY", "Zip": "11788", "County": "Suffolk", "Latitude": 40.763056, "Longitude": -73.323611, "t_Fuels": "Solar Photovoltaic", "t_Output": 1.0 }, "geometry": { "type": "Point", "coordinates": [ -73.323611, 40.763056 ] } },
{ "type": "Feature", "properties": { "Name": "Riverhead", "description": "<p>\nFuel: Solar Photovoltaic<br\/>\nNameplate Output: 1.5", "Plant_Code": 58789, "Plant_Name": "Riverhead", "State": "NY", "Zip": "11901", "County": "Suffolk", "Latitude": 40.826111, "Longitude": -73.232222, "t_Fuels": "Solar Photovoltaic", "t_Output": 1.5 }, "geometry": { "type": "Point", "coordinates": [ -73.232222, 40.826111 ] } },
{ "type": "Feature", "properties": { "Name": "Cohalan", "description": "<p>\nFuel: Solar Photovoltaic<br\/>\nNameplate Output: 4.0", "Plant_Code": 58790, "Plant_Name": "Cohalan", "State": "NY", "Zip": "11722", "County": "Suffolk", "Latitude": 40.762465, "Longitude": -73.194441, "t_Fuels": "Solar Photovoltaic", "t_Output": 4.0 }, "geometry": { "type": "Point", "coordinates": [ -73.194441, 40.762465 ] } },
{ "type": "Feature", "properties": { "Name": "Hilton NY Co Gen Plant", "description": "<p>\nFuel: Natural Gas Internal Combustion Engine<br\/>\nNameplate Output: 1.8", "Plant_Code": 58815, "Plant_Name": "Hilton NY Co Gen Plant", "State": "NY", "Zip": "10019", "County": "New York", "Latitude": 40.7625, "Longitude": -73.979167, "t_Fuels": "Natural Gas Internal Combustion Engine", "t_Output": 1.8 }, "geometry": { "type": "Point", "coordinates": [ -73.979167, 40.7625 ] } },
{ "type": "Feature", "properties": { "Name": "Stuyvesant Falls", "description": "<p>\nFuel: Conventional Hydroelectric<br\/>\nNameplate Output: 6.0", "Plant_Code": 58873, "Plant_Name": "Stuyvesant Falls", "State": "NY", "Zip": "12173", "County": "Columbia", "Latitude": 42.351389, "Longitude": -73.733889, "t_Fuels": "Conventional Hydroelectric", "t_Output": 6.0 }, "geometry": { "type": "Point", "coordinates": [ -73.733889, 42.351389 ] } },
{ "type": "Feature", "properties": { "Name": "Sutter Greeworks LLC", "description": "<p>\nFuel: Solar Photovoltaic<br\/>\nNameplate Output: 5.0", "Plant_Code": 59274, "Plant_Name": "Sutter Greeworks LLC", "State": "NY", "Zip": "11933", "County": "Suffolk", "Latitude": 40.928056, "Longitude": -72.771111, "t_Fuels": "Solar Photovoltaic", "t_Output": 5.0 }, "geometry": { "type": "Point", "coordinates": [ -72.771111, 40.928056 ] } },
{ "type": "Feature", "properties": { "Name": "Sterlington Greenworks LLC", "description": "<p>\nFuel: Solar Photovoltaic<br\/>\nNameplate Output: 1.3", "Plant_Code": 59275, "Plant_Name": "Sterlington Greenworks LLC", "State": "NY", "Zip": "11933", "County": "Suffolk", "Latitude": 41.0675, "Longitude": -72.440278, "t_Fuels": "Solar Photovoltaic", "t_Output": 1.3 }, "geometry": { "type": "Point", "coordinates": [ -72.440278, 41.0675 ] } },
{ "type": "Feature", "properties": { "Name": "Leavenworth Greenworks LLC", "description": "<p>\nFuel: Solar Photovoltaic<br\/>\nNameplate Output: 9.5", "Plant_Code": 59276, "Plant_Name": "Leavenworth Greenworks LLC", "State": "NY", "Zip": "11933", "County": "Suffolk", "Latitude": 40.925278, "Longitude": -72.763333, "t_Fuels": "Solar Photovoltaic", "t_Output": 9.5 }, "geometry": { "type": "Point", "coordinates": [ -72.763333, 40.925278 ] } },
{ "type": "Feature", "properties": { "Name": "Albany Medical Ctr Cogen Plant", "description": "<p>\nFuel: Natural Gas Fired Combustion Turbine<br\/>\nNameplate Output: 4.6", "Plant_Code": 59453, "Plant_Name": "Albany Medical Ctr Cogen Plant", "State": "NY", "Zip": "12208", "County": "Albany", "Latitude": 42.655, "Longitude": -73.7777, "t_Fuels": "Natural Gas Fired Combustion Turbine", "t_Output": 4.6 }, "geometry": { "type": "Point", "coordinates": [ -73.7777, 42.655 ] } },
{ "type": "Feature", "properties": { "Name": "Cornell Snyder Road Solar Array", "description": "<p>\nFuel: Solar Photovoltaic<br\/>\nNameplate Output: 1.8", "Plant_Code": 59470, "Plant_Name": "Cornell Snyder Road Solar Array", "State": "NY", "Zip": "14850", "County": "Tompkins", "Latitude": 42.4975, "Longitude": -76.46, "t_Fuels": "Solar Photovoltaic", "t_Output": 1.8 }, "geometry": { "type": "Point", "coordinates": [ -76.46, 42.4975 ] } },
{ "type": "Feature", "properties": { "Name": "Town of Williamson Landfill PV", "description": "<p>\nFuel: Solar Photovoltaic<br\/>\nNameplate Output: 1.2", "Plant_Code": 59613, "Plant_Name": "Town of Williamson Landfill PV", "State": "NY", "Zip": "14589", "County": "Wayne", "Latitude": 43.244444, "Longitude": -77.174722, "t_Fuels": "Solar Photovoltaic", "t_Output": 1.2 }, "geometry": { "type": "Point", "coordinates": [ -77.174722, 43.244444 ] } },
{ "type": "Feature", "properties": { "Name": "Clarkson Solar", "description": "<p>\nFuel: Solar Photovoltaic<br\/>\nNameplate Output: 2.0", "Plant_Code": 59623, "Plant_Name": "Clarkson Solar", "State": "NY", "Zip": "13676", "County": "St Lawrence", "Latitude": 44.671944, "Longitude": -74.949444, "t_Fuels": "Solar Photovoltaic", "t_Output": 2.0 }, "geometry": { "type": "Point", "coordinates": [ -74.949444, 44.671944 ] } },
{ "type": "Feature", "properties": { "Name": "Jericho Rise Wind Farm LLC", "description": "<p>\nFuel: Onshore Wind Turbine<br\/>\nNameplate Output: 77.7", "Plant_Code": 59629, "Plant_Name": "Jericho Rise Wind Farm LLC", "State": "NY", "Zip": "12923", "County": "Franklin", "Latitude": 44.888889, "Longitude": -74.103333, "t_Fuels": "Onshore Wind Turbine", "t_Output": 77.7 }, "geometry": { "type": "Point", "coordinates": [ -74.103333, 44.888889 ] } },
{ "type": "Feature", "properties": { "Name": "Steel Sun", "description": "<p>\nFuel: Solar Photovoltaic<br\/>\nNameplate Output: 2.0", "Plant_Code": 59705, "Plant_Name": "Steel Sun", "State": "NY", "Zip": "14218", "County": "Erie", "Latitude": 42.812811, "Longitude": -78.845313, "t_Fuels": "Solar Photovoltaic", "t_Output": 2.0 }, "geometry": { "type": "Point", "coordinates": [ -78.845313, 42.812811 ] } },
{ "type": "Feature", "properties": { "Name": "Millbrook School", "description": "<p>\nFuel: Solar Photovoltaic<br\/>\nNameplate Output: 1.4", "Plant_Code": 59789, "Plant_Name": "Millbrook School", "State": "NY", "Zip": "12545", "County": "Dutchess", "Latitude": 41.84581, "Longitude": -73.619485, "t_Fuels": "Solar Photovoltaic", "t_Output": 1.4 }, "geometry": { "type": "Point", "coordinates": [ -73.619485, 41.84581 ] } },
{ "type": "Feature", "properties": { "Name": "Nanticoke LFG", "description": "<p>\nFuel: Landfill Gas<br\/>\nNameplate Output: 4.0", "Plant_Code": 59816, "Plant_Name": "Nanticoke LFG", "State": "NY", "Zip": "13905", "County": "Broome", "Latitude": 42.243704, "Longitude": -75.982533, "t_Fuels": "Landfill Gas", "t_Output": 4.0 }, "geometry": { "type": "Point", "coordinates": [ -75.982533, 42.243704 ] } },
{ "type": "Feature", "properties": { "Name": "Clarkstown Landfill Solar Facility", "description": "<p>\nFuel: Solar Photovoltaic<br\/>\nNameplate Output: 2.0", "Plant_Code": 60004, "Plant_Name": "Clarkstown Landfill Solar Facility", "State": "NY", "Zip": "10994", "County": "Rockland", "Latitude": 41.100409, "Longitude": -73.951593, "t_Fuels": "Solar Photovoltaic", "t_Output": 2.0 }, "geometry": { "type": "Point", "coordinates": [ -73.951593, 41.100409 ] } },
{ "type": "Feature", "properties": { "Name": "Onondaga County - Metro Water Board", "description": "<p>\nFuel: Solar Photovoltaic<br\/>\nNameplate Output: 1.0", "Plant_Code": 60097, "Plant_Name": "Onondaga County - Metro Water Board", "State": "NY", "Zip": "13041", "County": "Onondaga", "Latitude": 43.183782, "Longitude": -76.224075, "t_Fuels": "Solar Photovoltaic", "t_Output": 1.0 }, "geometry": { "type": "Point", "coordinates": [ -76.224075, 43.183782 ] } },
{ "type": "Feature", "properties": { "Name": "Cornell Geneva Solar Farm", "description": "<p>\nFuel: Solar Photovoltaic<br\/>\nNameplate Output: 2.0", "Plant_Code": 60150, "Plant_Name": "Cornell Geneva Solar Farm", "State": "NY", "Zip": "14456", "County": "Ontario", "Latitude": 42.866, "Longitude": -77.031, "t_Fuels": "Solar Photovoltaic", "t_Output": 2.0 }, "geometry": { "type": "Point", "coordinates": [ -77.031, 42.866 ] } },
{ "type": "Feature", "properties": { "Name": "Vulcraft Solar", "description": "<p>\nFuel: Solar Photovoltaic<br\/>\nNameplate Output: 1.6", "Plant_Code": 60365, "Plant_Name": "Vulcraft Solar", "State": "NY", "Zip": "14825", "County": "Chemung", "Latitude": 42.005874, "Longitude": -76.61935, "t_Fuels": "Solar Photovoltaic", "t_Output": 1.6 }, "geometry": { "type": "Point", "coordinates": [ -76.61935, 42.005874 ] } },
{ "type": "Feature", "properties": { "Name": "Skidmore College", "description": "<p>\nFuel: Solar Photovoltaic<br\/>\nNameplate Output: 2.0", "Plant_Code": 60425, "Plant_Name": "Skidmore College", "State": "NY", "Zip": "12866", "County": "Saratoga", "Latitude": 43.093682, "Longitude": -73.81132, "t_Fuels": "Solar Photovoltaic", "t_Output": 2.0 }, "geometry": { "type": "Point", "coordinates": [ -73.81132, 43.093682 ] } },
{ "type": "Feature", "properties": { "Name": "Tompkins Cortland Community College", "description": "<p>\nFuel: Solar Photovoltaic<br\/>\nNameplate Output: 2.0", "Plant_Code": 60431, "Plant_Name": "Tompkins Cortland Community College", "State": "NY", "Zip": "13053", "County": "Tompkins", "Latitude": 42.5025, "Longitude": -76.2865, "t_Fuels": "Solar Photovoltaic", "t_Output": 2.0 }, "geometry": { "type": "Point", "coordinates": [ -76.2865, 42.5025 ] } },
{ "type": "Feature", "properties": { "Name": "Calverton", "description": "<p>\nFuel: Solar Photovoltaic<br\/>\nNameplate Output: 3.9", "Plant_Code": 60452, "Plant_Name": "Calverton", "State": "NY", "Zip": "11933", "County": "Suffolk", "Latitude": 40.921086, "Longitude": -72.743701, "t_Fuels": "Solar Photovoltaic", "t_Output": 3.9 }, "geometry": { "type": "Point", "coordinates": [ -72.743701, 40.921086 ] } },
{ "type": "Feature", "properties": { "Name": "Cummins, Inc", "description": "<p>\nFuel: Solar Photovoltaic<br\/>\nNameplate Output: 2.0", "Plant_Code": 60453, "Plant_Name": "Cummins, Inc", "State": "NY", "Zip": "14750", "County": "Chautauqua", "Latitude": 42.08124, "Longitude": -79.36125, "t_Fuels": "Solar Photovoltaic", "t_Output": 2.0 }, "geometry": { "type": "Point", "coordinates": [ -79.36125, 42.08124 ] } },
{ "type": "Feature", "properties": { "Name": "Houghton", "description": "<p>\nFuel: Solar Photovoltaic<br\/>\nNameplate Output: 2.6", "Plant_Code": 60454, "Plant_Name": "Houghton", "State": "NY", "Zip": "14744", "County": "Allegany", "Latitude": 42.426731, "Longitude": -78.156589, "t_Fuels": "Solar Photovoltaic", "t_Output": 2.6 }, "geometry": { "type": "Point", "coordinates": [ -78.156589, 42.426731 ] } },
{ "type": "Feature", "properties": { "Name": "Oneida - South", "description": "<p>\nFuel: Solar Photovoltaic<br\/>\nNameplate Output: 1.9", "Plant_Code": 60455, "Plant_Name": "Oneida - South", "State": "NY", "Zip": "13492", "County": "Oneida", "Latitude": 43.166353, "Longitude": -75.386866, "t_Fuels": "Solar Photovoltaic", "t_Output": 1.9 }, "geometry": { "type": "Point", "coordinates": [ -75.386866, 43.166353 ] } },
{ "type": "Feature", "properties": { "Name": "Oneida - West", "description": "<p>\nFuel: Solar Photovoltaic<br\/>\nNameplate Output: 1.9", "Plant_Code": 60456, "Plant_Name": "Oneida - West", "State": "NY", "Zip": "13492", "County": "Oneida", "Latitude": 43.169617, "Longitude": -75.404866, "t_Fuels": "Solar Photovoltaic", "t_Output": 1.9 }, "geometry": { "type": "Point", "coordinates": [ -75.404866, 43.169617 ] } },
{ "type": "Feature", "properties": { "Name": "Bethlehem - East", "description": "<p>\nFuel: Solar Photovoltaic<br\/>\nNameplate Output: 1.7", "Plant_Code": 60477, "Plant_Name": "Bethlehem - East", "State": "NY", "Zip": "12158", "County": "Albany", "Latitude": 42.539006, "Longitude": -73.824295, "t_Fuels": "Solar Photovoltaic", "t_Output": 1.7 }, "geometry": { "type": "Point", "coordinates": [ -73.824295, 42.539006 ] } },
{ "type": "Feature", "properties": { "Name": "Bethlehem - West", "description": "<p>\nFuel: Solar Photovoltaic<br\/>\nNameplate Output: 1.0", "Plant_Code": 60478, "Plant_Name": "Bethlehem - West", "State": "NY", "Zip": "12158", "County": "Albany", "Latitude": 42.539006, "Longitude": -73.824295, "t_Fuels": "Solar Photovoltaic", "t_Output": 1.0 }, "geometry": { "type": "Point", "coordinates": [ -73.824295, 42.539006 ] } },
{ "type": "Feature", "properties": { "Name": "Tannery Road Landfill", "description": "<p>\nFuel: Solar Photovoltaic<br\/>\nNameplate Output: 2.0", "Plant_Code": 60677, "Plant_Name": "Tannery Road Landfill", "State": "NY", "Zip": "13440", "County": "Oneida", "Latitude": 43.239004, "Longitude": -75.534588, "t_Fuels": "Solar Photovoltaic", "t_Output": 2.0 }, "geometry": { "type": "Point", "coordinates": [ -75.534588, 43.239004 ] } },
{ "type": "Feature", "properties": { "Name": "Onyx - Lamphear Road", "description": "<p>\nFuel: Solar Photovoltaic<br\/>\nNameplate Output: 2.0", "Plant_Code": 60967, "Plant_Name": "Onyx - Lamphear Road", "State": "NY", "Zip": "13440", "County": "Oneida", "Latitude": 43.18413, "Longitude": -75.476724, "t_Fuels": "Solar Photovoltaic", "t_Output": 2.0 }, "geometry": { "type": "Point", "coordinates": [ -75.476724, 43.18413 ] } },
{ "type": "Feature", "properties": { "Name": "Musgrave East Solar Farm", "description": "<p>\nFuel: Solar Photovoltaic<br\/>\nNameplate Output: 2.0", "Plant_Code": 61003, "Plant_Name": "Musgrave East Solar Farm", "State": "NY", "Zip": "13026", "County": "Cayuga", "Latitude": 42.731496, "Longitude": -76.663665, "t_Fuels": "Solar Photovoltaic", "t_Output": 2.0 }, "geometry": { "type": "Point", "coordinates": [ -76.663665, 42.731496 ] } },
{ "type": "Feature", "properties": { "Name": "Mill Seat Renewable Energy Facility", "description": "<p>\nFuel: Landfill Gas<br\/>\nNameplate Output: 2.4", "Plant_Code": 61012, "Plant_Name": "Mill Seat Renewable Energy Facility", "State": "NY", "Zip": "14416", "County": "Genesee", "Latitude": 43.063706, "Longitude": -77.932902, "t_Fuels": "Landfill Gas", "t_Output": 2.4 }, "geometry": { "type": "Point", "coordinates": [ -77.932902, 43.063706 ] } },
{ "type": "Feature", "properties": { "Name": "Musgrave West Solar Farm", "description": "<p>\nFuel: Solar Photovoltaic<br\/>\nNameplate Output: 2.0", "Plant_Code": 61015, "Plant_Name": "Musgrave West Solar Farm", "State": "NY", "Zip": "13026", "County": "Cayuga", "Latitude": 42.731496, "Longitude": -76.663665, "t_Fuels": "Solar Photovoltaic", "t_Output": 2.0 }, "geometry": { "type": "Point", "coordinates": [ -76.663665, 42.731496 ] } },
{ "type": "Feature", "properties": { "Name": "Montefiore - Westchester Square", "description": "<p>\nFuel: Petroleum Liquids<br\/>\nNameplate Output: 1.0", "Plant_Code": 61025, "Plant_Name": "Montefiore - Westchester Square", "State": "NY", "Zip": "10461", "County": "Bronx", "Latitude": 40.840648, "Longitude": -73.848367, "t_Fuels": "Petroleum Liquids", "t_Output": 1.0 }, "geometry": { "type": "Point", "coordinates": [ -73.848367, 40.840648 ] } },
{ "type": "Feature", "properties": { "Name": "New York Presbyterian Hospital-168th St", "description": "<p>\nFuel: Petroleum Liquids<br\/>\nNameplate Output: 11.9", "Plant_Code": 61026, "Plant_Name": "New York Presbyterian Hospital-168th St", "State": "NY", "Zip": "10032", "County": "New York", "Latitude": 40.840854, "Longitude": -73.941391, "t_Fuels": "Petroleum Liquids", "t_Output": 11.9 }, "geometry": { "type": "Point", "coordinates": [ -73.941391, 40.840854 ] } },
{ "type": "Feature", "properties": { "Name": "Harford Solar Farm", "description": "<p>\nFuel: Solar Photovoltaic<br\/>\nNameplate Output: 2.0", "Plant_Code": 61030, "Plant_Name": "Harford Solar Farm", "State": "NY", "Zip": "13053", "County": "Tompkins", "Latitude": 42.448, "Longitude": -76.245, "t_Fuels": "Solar Photovoltaic", "t_Output": 2.0 }, "geometry": { "type": "Point", "coordinates": [ -76.245, 42.448 ] } },
{ "type": "Feature", "properties": { "Name": "Canandaigua Solar Array", "description": "<p>\nFuel: Solar Photovoltaic<br\/>\nNameplate Output: 2.0", "Plant_Code": 61043, "Plant_Name": "Canandaigua Solar Array", "State": "NY", "Zip": "14424", "County": "Ontario", "Latitude": 42.86887, "Longitude": -77.284561, "t_Fuels": "Solar Photovoltaic", "t_Output": 2.0 }, "geometry": { "type": "Point", "coordinates": [ -77.284561, 42.86887 ] } },
{ "type": "Feature", "properties": { "Name": "Green Island Hydroelectric Station", "description": "<p>\nFuel: Conventional Hydroelectric<br\/>\nNameplate Output: 6.0", "Plant_Code": 61207, "Plant_Name": "Green Island Hydroelectric Station", "State": "NY", "Zip": "12183", "County": "Albany", "Latitude": 42.748106, "Longitude": -73.69022, "t_Fuels": "Conventional Hydroelectric", "t_Output": 6.0 }, "geometry": { "type": "Point", "coordinates": [ -73.69022, 42.748106 ] } },
{ "type": "Feature", "properties": { "Name": "Finger Lakes Solar I", "description": "<p>\nFuel: Solar Photovoltaic<br\/>\nNameplate Output: 2.0", "Plant_Code": 61210, "Plant_Name": "Finger Lakes Solar I", "State": "NY", "Zip": "14456", "County": "Ontario", "Latitude": 42.814025, "Longitude": -77.045631, "t_Fuels": "Solar Photovoltaic", "t_Output": 2.0 }, "geometry": { "type": "Point", "coordinates": [ -77.045631, 42.814025 ] } },
{ "type": "Feature", "properties": { "Name": "NY - Presbyt. Hospital - 525 E 68TH St", "description": "<p>\nFuel: Natural Gas Fired Combustion Turbine, Petroleum Liquids<br\/>\nNameplate Output: 18.4", "Plant_Code": 61238, "Plant_Name": "NY - Presbyt. Hospital - 525 E 68TH St", "State": "NY", "Zip": "10021", "County": "New York", "Latitude": 40.764396, "Longitude": -73.95393, "t_Fuels": "Natural Gas Fired Combustion Turbine, Petroleum Liquids", "t_Output": 18.4 }, "geometry": { "type": "Point", "coordinates": [ -73.95393, 40.764396 ] } },
{ "type": "Feature", "properties": { "Name": "Northern Westchester Hospital", "description": "<p>\nFuel: Natural Gas Internal Combustion Engine, Petroleum Liquids<br\/>\nNameplate Output: 1.7", "Plant_Code": 61378, "Plant_Name": "Northern Westchester Hospital", "State": "NY", "Zip": "10549", "County": "Westchester", "Latitude": 41.196839, "Longitude": -73.725695, "t_Fuels": "Natural Gas Internal Combustion Engine, Petroleum Liquids", "t_Output": 1.7 }, "geometry": { "type": "Point", "coordinates": [ -73.725695, 41.196839 ] } },
{ "type": "Feature", "properties": { "Name": "NYC-HH - CONEY ISLAND HOSPITAL", "description": "<p>\nFuel: Petroleum Liquids<br\/>\nNameplate Output: 2.8", "Plant_Code": 61413, "Plant_Name": "NYC-HH - CONEY ISLAND HOSPITAL", "State": "NY", "Zip": "11235", "County": "Kings", "Latitude": 40.58549, "Longitude": -73.965581, "t_Fuels": "Petroleum Liquids", "t_Output": 2.8 }, "geometry": { "type": "Point", "coordinates": [ -73.965581, 40.58549 ] } },
{ "type": "Feature", "properties": { "Name": "NY Times Daily Production Facility", "description": "<p>\nFuel: Petroleum Liquids<br\/>\nNameplate Output: 12.0", "Plant_Code": 61414, "Plant_Name": "NY Times Daily Production Facility", "State": "NY", "Zip": "11354", "County": "Queens", "Latitude": 40.775397, "Longitude": -73.830918, "t_Fuels": "Petroleum Liquids", "t_Output": 12.0 }, "geometry": { "type": "Point", "coordinates": [ -73.830918, 40.775397 ] } },
{ "type": "Feature", "properties": { "Name": "Mount Sinai Hospital", "description": "<p>\nFuel: Natural Gas Internal Combustion Engine, Petroleum Liquids<br\/>\nNameplate Output: 18.7", "Plant_Code": 61416, "Plant_Name": "Mount Sinai Hospital", "State": "NY", "Zip": "10029", "County": "New York", "Latitude": 40.78999, "Longitude": -73.953689, "t_Fuels": "Natural Gas Internal Combustion Engine, Petroleum Liquids", "t_Output": 18.7 }, "geometry": { "type": "Point", "coordinates": [ -73.953689, 40.78999 ] } }
]
}
