{
"type": "FeatureCollection",
"name": "nycwaste",
"crs": { "type": "name", "properties": { "name": "urn:ogc:def:crs:EPSG::3857" } },
"features": [
{ "type": "Feature", "properties": { "OBJECTID": 1841, "SWID": 361878, "NAME": "ACTION ENVIRONMENTAL SERVICES - STANLEY AVE", "ADDRESS": "941 STANLEY AVE.", "CITY": "BROOKLYN", "STATE": "NY", "ZIP": "11208", "ZIP4": "NOT AVAILABLE", "TELEPHONE": "(718) 866-2367", "TYPE": "TRANSFER", "STATUS": "OPEN", "COUNTY": "KINGS", "COUNTYFIPS": "36047", "COUNTRY": "USA", "LATITUDE": 40.663622289836837, "LONGITUDE": -73.874631709385824, "NAICS_CODE": "562111", "NAICS_DESC": "WASTE TRANSFER STATIONS, NONHAZARDOUS SOLID", "SOURCE": "https://data.ny.gov/Energy-Environment/Transfer-Stations-Solid-Waste-Management-Facilitie/avuu-s8z3", "SOURCEDATE": "2019-05-02", "VAL_METHOD": "IMAGERY/OTHER", "VAL_DATE": "2020-04-28", "WEBSITE": "NOT AVAILABLE", "REG_ID": "NOT AVAILABLE", "STATUSDATE": "10/14/2015", "OWNER": "ACTION ENVIRONMENTAL SERVICES", "CLOSE_DATE": "NOT AVAILABLE", "PERMIT_NO": "2-6105-00227/00003" }, "geometry": { "type": "Point", "coordinates": [ -8223686.384400000795722, 4962851.922600001096725 ] } },
{ "type": "Feature", "properties": { "OBJECTID": 1883, "SWID": 361931, "NAME": "CITY GREEN ORGANICS", "ADDRESS": "105-115 THAMES STREET", "CITY": "BROOKLYN", "STATE": "NY", "ZIP": "11237", "ZIP4": "NOT AVAILABLE", "TELEPHONE": "(718) 456-1307", "TYPE": "TRANSFER", "STATUS": "OPEN", "COUNTY": "KINGS", "COUNTYFIPS": "36047", "COUNTRY": "USA", "LATITUDE": 40.705675454758477, "LONGITUDE": -73.928627934931228, "NAICS_CODE": "562111", "NAICS_DESC": "WASTE TRANSFER STATIONS, NONHAZARDOUS SOLID", "SOURCE": "https://data.ny.gov/Energy-Environment/Transfer-Stations-Solid-Waste-Management-Facilitie/avuu-s8z3", "SOURCEDATE": "2019-05-02", "VAL_METHOD": "IMAGERY/OTHER", "VAL_DATE": "2020-04-28", "WEBSITE": "NOT AVAILABLE", "REG_ID": "NOT AVAILABLE", "STATUSDATE": "NOT AVAILABLE", "OWNER": "NINO TRISTANI", "CLOSE_DATE": "NOT AVAILABLE", "PERMIT_NO": "2-6104-00096/00001" }, "geometry": { "type": "Point", "coordinates": [ -8229697.21680000051856, 4969025.312399998307228 ] } },
{ "type": "Feature", "properties": { "OBJECTID": 1984, "SWID": 362041, "NAME": "GREEN ASPHALT CO; LLC", "ADDRESS": "37-98 RAILROAD AVE", "CITY": "LONG ISLAND CITY", "STATE": "NY", "ZIP": "11101", "ZIP4": "NOT AVAILABLE", "TELEPHONE": "(718) 729-0990", "TYPE": "TRANSFER", "STATUS": "OPEN", "COUNTY": "QUEENS", "COUNTYFIPS": "36081", "COUNTRY": "USA", "LATITUDE": 40.731794858845717, "LONGITUDE": -73.938655587984954, "NAICS_CODE": "562111", "NAICS_DESC": "WASTE TRANSFER STATIONS, NONHAZARDOUS SOLID", "SOURCE": "https://data.ny.gov/Energy-Environment/Transfer-Stations-Solid-Waste-Management-Facilitie/avuu-s8z3", "SOURCEDATE": "2019-05-02", "VAL_METHOD": "IMAGERY/OTHER", "VAL_DATE": "2020-04-28", "WEBSITE": "NOT AVAILABLE", "REG_ID": "NOT AVAILABLE", "STATUSDATE": "NOT AVAILABLE", "OWNER": "MICHAEL A. CAPASSO", "CLOSE_DATE": "NOT AVAILABLE", "PERMIT_NO": "NOT AVAILABLE" }, "geometry": { "type": "Point", "coordinates": [ -8230813.490000000223517, 4972861.594200000166893 ] } },
{ "type": "Feature", "properties": { "OBJECTID": 2008, "SWID": 362064, "NAME": "HI-TECH RESOURCE RECOVERY INC", "ADDRESS": "130 VARICK AVENUE", "CITY": "BROOKLYN", "STATE": "NY", "ZIP": "11237", "ZIP4": "NOT AVAILABLE", "TELEPHONE": "(718) 386-5750", "TYPE": "TRANSFER", "STATUS": "NOT AVAILABLE", "COUNTY": "KINGS", "COUNTYFIPS": "36047", "COUNTRY": "USA", "LATITUDE": 40.71080218037639, "LONGITUDE": -73.928101973627122, "NAICS_CODE": "562111", "NAICS_DESC": "WASTE TRANSFER STATIONS, NONHAZARDOUS SOLID", "SOURCE": "https://data.ny.gov/Energy-Environment/Solid-Waste-Management-Facilities/2fni-raj8/data", "SOURCEDATE": "2022-02-22", "VAL_METHOD": "IMAGERY", "VAL_DATE": "2022-04-20", "WEBSITE": "NOT AVAILABLE", "REG_ID": "NOT AVAILABLE", "STATUSDATE": "NOT AVAILABLE", "OWNER": "HI-TECH RESOURCE RECOVERY INC.", "CLOSE_DATE": "NOT AVAILABLE", "PERMIT_NO": "NOT AVAILABLE" }, "geometry": { "type": "Point", "coordinates": [ -8229638.666999999433756, 4969778.180399999022484 ] } },
{ "type": "Feature", "properties": { "OBJECTID": 2020, "SWID": 362079, "NAME": "IESI NY CORPORATION 577 COURT ST", "ADDRESS": "563-577 COURT STREET", "CITY": "BROOKLYN", "STATE": "NY", "ZIP": "11232", "ZIP4": "NOT AVAILABLE", "TELEPHONE": "(718) 823-5596", "TYPE": "TRANSFER", "STATUS": "OPEN", "COUNTY": "KINGS", "COUNTYFIPS": "36047", "COUNTRY": "USA", "LATITUDE": 40.672872662443467, "LONGITUDE": -74.000126580876938, "NAICS_CODE": "562111", "NAICS_DESC": "WASTE TRANSFER STATIONS, NONHAZARDOUS SOLID", "SOURCE": "https://data.ny.gov/Energy-Environment/Transfer-Stations-Solid-Waste-Management-Facilitie/avuu-s8z3", "SOURCEDATE": "2019-05-02", "VAL_METHOD": "IMAGERY/OTHER", "VAL_DATE": "2020-04-28", "WEBSITE": "NOT AVAILABLE", "REG_ID": "NOT AVAILABLE", "STATUSDATE": "4/4/2018", "OWNER": "IESI NY CORPORATION", "CLOSE_DATE": "NOT AVAILABLE", "PERMIT_NO": "2-6102-00074/00001" }, "geometry": { "type": "Point", "coordinates": [ -8237656.409600000828505, 4964209.539899997413158 ] } },
{ "type": "Feature", "properties": { "OBJECTID": 2022, "SWID": 362078, "NAME": "IESI NY CORPORATION -110 120 50TH ST.", "ADDRESS": "110-120 50TH STREET", "CITY": "BROOKLYN", "STATE": "NY", "ZIP": "11232", "ZIP4": "NOT AVAILABLE", "TELEPHONE": "(718) 868-3733", "TYPE": "TRANSFER", "STATUS": "OPEN", "COUNTY": "KINGS", "COUNTYFIPS": "36047", "COUNTRY": "USA", "LATITUDE": 40.649970892342878, "LONGITUDE": -74.018831286934301, "NAICS_CODE": "562111", "NAICS_DESC": "WASTE TRANSFER STATIONS, NONHAZARDOUS SOLID", "SOURCE": "https://data.ny.gov/Energy-Environment/Transfer-Stations-Solid-Waste-Management-Facilitie/avuu-s8z3", "SOURCEDATE": "2019-05-02", "VAL_METHOD": "IMAGERY/OTHER", "VAL_DATE": "2020-04-28", "WEBSITE": "NOT AVAILABLE", "REG_ID": "NOT AVAILABLE", "STATUSDATE": "2/11/2016", "OWNER": "IESI NY CORPORATION", "CLOSE_DATE": "NOT AVAILABLE", "PERMIT_NO": "2-6102-00067/00001" }, "geometry": { "type": "Point", "coordinates": [ -8239738.607999999076128, 4960848.73929999768734 ] } },
{ "type": "Feature", "properties": { "OBJECTID": 2345, "SWID": 362408, "NAME": "WMNY BQE TRANSFER STATION", "ADDRESS": "75 THOMAS STREET", "CITY": "BROOKYN", "STATE": "NY", "ZIP": "11222", "ZIP4": "NOT AVAILABLE", "TELEPHONE": "(718) 533-5398", "TYPE": "C&D", "STATUS": "NOT AVAILABLE", "COUNTY": "KINGS", "COUNTYFIPS": "36047", "COUNTRY": "USA", "LATITUDE": 40.726796212875001, "LONGITUDE": -73.931188823705213, "NAICS_CODE": "562111", "NAICS_DESC": "WASTE TRANSFER STATIONS, NONHAZARDOUS SOLID", "SOURCE": "https://data.ny.gov/Energy-Environment/Solid-Waste-Management-Facilities/2fni-raj8/data", "SOURCEDATE": "2022-02-22", "VAL_METHOD": "IMAGERY", "VAL_DATE": "2022-04-20", "WEBSITE": "NOT AVAILABLE", "REG_ID": "NOT AVAILABLE", "STATUSDATE": "4/27/2021", "OWNER": "WASTE MANAGEMENT OF NY", "CLOSE_DATE": "NOT AVAILABLE", "PERMIT_NO": "NOT AVAILABLE" }, "geometry": { "type": "Point", "coordinates": [ -8229982.293600000441074, 4972127.302699998021126 ] } },
{ "type": "Feature", "properties": { "OBJECTID": 2348, "SWID": 362410, "NAME": "WMNY REVIEW TRANSFER STATION", "ADDRESS": "38-22 REVIEW AVENUE", "CITY": "LONG ISLAND CITY", "STATE": "NY", "ZIP": "11101", "ZIP4": "NOT AVAILABLE", "TELEPHONE": "(718) 875-0323", "TYPE": "TRANSFER", "STATUS": "OPEN", "COUNTY": "QUEENS", "COUNTYFIPS": "36081", "COUNTRY": "USA", "LATITUDE": 40.730296161138995, "LONGITUDE": -73.936352292923914, "NAICS_CODE": "562111", "NAICS_DESC": "WASTE TRANSFER STATIONS, NONHAZARDOUS SOLID", "SOURCE": "https://data.ny.gov/Energy-Environment/Transfer-Stations-Solid-Waste-Management-Facilitie/avuu-s8z3", "SOURCEDATE": "2019-05-02", "VAL_METHOD": "IMAGERY/OTHER", "VAL_DATE": "2020-04-28", "WEBSITE": "NOT AVAILABLE", "REG_ID": "NOT AVAILABLE", "STATUSDATE": "6/11/2017", "OWNER": "WASTE MANAGEMENT OF NY; LLC", "CLOSE_DATE": "NOT AVAILABLE", "PERMIT_NO": "2-6304-00029/00001" }, "geometry": { "type": "Point", "coordinates": [ -8230557.088400000706315, 4972641.432599999010563 ] } },
{ "type": "Feature", "properties": { "OBJECTID": 2355, "SWID": 362412, "NAME": "WMNY VARICK 1 TRANSFER STATION", "ADDRESS": "215 VARICK AVENUE", "CITY": "BROOKLYN", "STATE": "NY", "ZIP": "11237", "ZIP4": "NOT AVAILABLE", "TELEPHONE": "(718) 853-5266", "TYPE": "TRANSFER", "STATUS": "OPEN", "COUNTY": "KINGS", "COUNTYFIPS": "36047", "COUNTRY": "USA", "LATITUDE": 40.712758402778093, "LONGITUDE": -73.930107090369859, "NAICS_CODE": "562111", "NAICS_DESC": "WASTE TRANSFER STATIONS, NONHAZARDOUS SOLID", "SOURCE": "https://data.ny.gov/Energy-Environment/Transfer-Stations-Solid-Waste-Management-Facilitie/avuu-s8z3", "SOURCEDATE": "2019-05-02", "VAL_METHOD": "IMAGERY/OTHER", "VAL_DATE": "2020-04-28", "WEBSITE": "NOT AVAILABLE", "REG_ID": "NOT AVAILABLE", "STATUSDATE": "10/21/2019", "OWNER": "WASTE MANAGEMENT OF NY; LLC", "CLOSE_DATE": "NOT AVAILABLE", "PERMIT_NO": "2-6104-00010/00002" }, "geometry": { "type": "Point", "coordinates": [ -8229861.875600000843406, 4970065.470100000500679 ] } },
{ "type": "Feature", "properties": { "OBJECTID": 3260, "SWID": 362441, "NAME": "3RD AVE FLUSH TRUCK", "ADDRESS": "222 FIRST STREET", "CITY": "BROOKLYN", "STATE": "NY", "ZIP": "11215", "ZIP4": "NOT AVAILABLE", "TELEPHONE": "(718) 666-4678", "TYPE": "TRANSFER", "STATUS": "CLOSED", "COUNTY": "KINGS", "COUNTYFIPS": "36047", "COUNTRY": "USA", "LATITUDE": 40.675231484345602, "LONGITUDE": -73.985422808415819, "NAICS_CODE": "562111", "NAICS_DESC": "WASTE TRANSFER STATIONS, NONHAZARDOUS SOLID", "SOURCE": "https://data.ny.gov/Energy-Environment/Transfer-Stations-Solid-Waste-Management-Facilitie/avuu-s8z3", "SOURCEDATE": "2019-05-02", "VAL_METHOD": "IMAGERY/OTHER", "VAL_DATE": "2020-04-28", "WEBSITE": "NOT AVAILABLE", "REG_ID": "NOT AVAILABLE", "STATUSDATE": "NOT AVAILABLE", "OWNER": "NOT AVAILABLE", "CLOSE_DATE": "NOT AVAILABLE", "PERMIT_NO": "NOT AVAILABLE" }, "geometry": { "type": "Point", "coordinates": [ -8236019.5932, 4964555.759099997580051 ] } },
{ "type": "Feature", "properties": { "OBJECTID": 4264, "SWID": 782904, "NAME": "NYCDOS SOUTHWEST BROOKLYN MTS", "ADDRESS": "41ST STREET & GRAVESEND BAY", "CITY": "BROOKLYN", "STATE": "NY", "ZIP": "11214", "ZIP4": "NOT AVAILABLE", "TELEPHONE": "(212) 837-8030", "TYPE": "TRANSFER", "STATUS": "OPEN", "COUNTY": "KINGS", "COUNTYFIPS": "36047", "COUNTRY": "USA", "LATITUDE": 40.590837844490977, "LONGITUDE": -73.991058789531451, "NAICS_CODE": "562111", "NAICS_DESC": "WASTE TRANSFER STATIONS, NONHAZARDOUS SOLID", "SOURCE": "https://data.ny.gov/Energy-Environment/Solid-Waste-Management-Facilities/2fni-raj8/data", "SOURCEDATE": "2019-05-02", "VAL_METHOD": "UNVERIFIED", "VAL_DATE": "2020-04-28", "WEBSITE": "NOT AVAILABLE", "REG_ID": "NOT AVAILABLE", "STATUSDATE": "NOT AVAILABLE", "OWNER": "NOT AVAILABLE", "CLOSE_DATE": "NOT AVAILABLE", "PERMIT_NO": "NOT AVAILABLE" }, "geometry": { "type": "Point", "coordinates": [ -8236646.987700000405312, 4952176.382299996912479 ] } },
{ "type": "Feature", "properties": { "OBJECTID": 8709, "SWID": 784131, "NAME": "MASPETH RECYCLING INC", "ADDRESS": "58-08 48 STREET", "CITY": "MASPETH", "STATE": "NY", "ZIP": "11106", "ZIP4": "NOT AVAILABLE", "TELEPHONE": "(718) 628-1290", "TYPE": "C&D", "STATUS": "NOT AVAILABLE", "COUNTY": "QUEENS", "COUNTYFIPS": "36081", "COUNTRY": "USA", "LATITUDE": 40.721646507780179, "LONGITUDE": -73.92342067682273, "NAICS_CODE": "562212", "NAICS_DESC": "SOLID WASTE LANDFILLS, NONHAZARDOUS", "SOURCE": "https://data.ny.gov/Energy-Environment/Solid-Waste-Management-Facilities/2fni-raj8/data", "SOURCEDATE": "2022-02-22", "VAL_METHOD": "IMAGERY", "VAL_DATE": "2022-04-20", "WEBSITE": "NOT AVAILABLE", "REG_ID": "NOT AVAILABLE", "STATUSDATE": "NOT AVAILABLE", "OWNER": "DOMENICK CIPOLLONE", "CLOSE_DATE": "NOT AVAILABLE", "PERMIT_NO": "NOT AVAILABLE" }, "geometry": { "type": "Point", "coordinates": [ -8229117.547399999573827, 4971370.878499999642372 ] } },
{ "type": "Feature", "properties": { "OBJECTID": 8721, "SWID": 784143, "NAME": "DSNY GREENPOINT HOUSEHOLD DROP-OFF", "ADDRESS": "459 NORTH HENRY ST. (NEWTOWN CREEK IN GREENPOINT)", "CITY": "BROOKLYN", "STATE": "NY", "ZIP": "11222", "ZIP4": "NOT AVAILABLE", "TELEPHONE": "(212) 837-8030", "TYPE": "TRANSFER", "STATUS": "NOT AVAILABLE", "COUNTY": "KINGS", "COUNTYFIPS": "36047", "COUNTRY": "USA", "LATITUDE": 40.685894462559475, "LONGITUDE": -73.998564123035806, "NAICS_CODE": "562111", "NAICS_DESC": "WASTE TRANSFER STATIONS, NONHAZARDOUS SOLID", "SOURCE": "https://data.ny.gov/Energy-Environment/Solid-Waste-Management-Facilities/2fni-raj8/data", "SOURCEDATE": "2022-02-22", "VAL_METHOD": "GEOCODE", "VAL_DATE": "2022-04-20", "WEBSITE": "NOT AVAILABLE", "REG_ID": "NOT AVAILABLE", "STATUSDATE": "NOT AVAILABLE", "OWNER": "NYC DEPARTMENT OF SANITATION", "CLOSE_DATE": "NOT AVAILABLE", "PERMIT_NO": "NOT AVAILABLE" }, "geometry": { "type": "Point", "coordinates": [ -8237482.477600000798702, 4966120.984499998390675 ] } },
{ "type": "Feature", "properties": { "OBJECTID": 8736, "SWID": 784158, "NAME": "CITY RECYCLING CORP", "ADDRESS": "151 ANTHONY STREET", "CITY": "BROOKLYN", "STATE": "NY", "ZIP": "11222", "ZIP4": "NOT AVAILABLE", "TELEPHONE": "(718) 599-6573", "TYPE": "C&D", "STATUS": "NOT AVAILABLE", "COUNTY": "KINGS", "COUNTYFIPS": "36047", "COUNTRY": "USA", "LATITUDE": 40.724449822301494, "LONGITUDE": -73.931805787407143, "NAICS_CODE": "562212", "NAICS_DESC": "SOLID WASTE LANDFILLS, NONHAZARDOUS", "SOURCE": "https://data.ny.gov/Energy-Environment/Solid-Waste-Management-Facilities/2fni-raj8/data", "SOURCEDATE": "2022-02-22", "VAL_METHOD": "IMAGERY", "VAL_DATE": "2022-04-20", "WEBSITE": "NOT AVAILABLE", "REG_ID": "NOT AVAILABLE", "STATUSDATE": "NOT AVAILABLE", "OWNER": "LUCIANO AND GINO CASAGRANDE", "CLOSE_DATE": "NOT AVAILABLE", "PERMIT_NO": "NOT AVAILABLE" }, "geometry": { "type": "Point", "coordinates": [ -8230050.9737, 4971782.641400001943111 ] } },
{ "type": "Feature", "properties": { "OBJECTID": 8745, "SWID": 784167, "NAME": "DECOSTOLE CARTING INC", "ADDRESS": "1481 TROY AVENUE", "CITY": "BROOKLYN", "STATE": "NY", "ZIP": "11203", "ZIP4": "NOT AVAILABLE", "TELEPHONE": "(718) 241-6428", "TYPE": "C&D", "STATUS": "NOT AVAILABLE", "COUNTY": "KINGS", "COUNTYFIPS": "36047", "COUNTRY": "USA", "LATITUDE": 40.636207909667355, "LONGITUDE": -73.934256500237268, "NAICS_CODE": "562212", "NAICS_DESC": "SOLID WASTE LANDFILLS, NONHAZARDOUS", "SOURCE": "https://data.ny.gov/Energy-Environment/Solid-Waste-Management-Facilities/2fni-raj8/data", "SOURCEDATE": "2022-02-22", "VAL_METHOD": "IMAGERY", "VAL_DATE": "2022-04-20", "WEBSITE": "NOT AVAILABLE", "REG_ID": "NOT AVAILABLE", "STATUSDATE": "NOT AVAILABLE", "OWNER": "DECOSTOLE CARTING INC", "CLOSE_DATE": "NOT AVAILABLE", "PERMIT_NO": "NOT AVAILABLE" }, "geometry": { "type": "Point", "coordinates": [ -8230323.785800000652671, 4958829.596900001168251 ] } },
{ "type": "Feature", "properties": { "OBJECTID": 8818, "SWID": 784240, "NAME": "DSNY PIKE SLIP HOUSEHOLD SPECIAL WASTE DROPOFF FACILITY", "ADDRESS": "74 PIKE SLIP", "CITY": "NEW YORK", "STATE": "NY", "ZIP": "10002", "ZIP4": "NOT AVAILABLE", "TELEPHONE": "(212) 437-4657", "TYPE": "TRANSFER", "STATUS": "NOT AVAILABLE", "COUNTY": "NEW YORK", "COUNTYFIPS": "36061", "COUNTRY": "USA", "LATITUDE": 40.710670999866807, "LONGITUDE": -73.992131999991798, "NAICS_CODE": "562111", "NAICS_DESC": "WASTE TRANSFER STATIONS, NONHAZARDOUS SOLID", "SOURCE": "https://data.ny.gov/Energy-Environment/Solid-Waste-Management-Facilities/2fni-raj8/data", "SOURCEDATE": "2022-02-22", "VAL_METHOD": "IMAGERY", "VAL_DATE": "2022-04-20", "WEBSITE": "NOT AVAILABLE", "REG_ID": "NOT AVAILABLE", "STATUSDATE": "NOT AVAILABLE", "OWNER": "NYC DEPT OF SANITATION", "CLOSE_DATE": "NOT AVAILABLE", "PERMIT_NO": "NOT AVAILABLE" }, "geometry": { "type": "Point", "coordinates": [ -8236766.456900000572205, 4969758.915600001811981 ] } },
{ "type": "Feature", "properties": { "OBJECTID": 8893, "SWID": 784315, "NAME": "EMPIRE RECYCLING SERVICES (ASTORIA CARTING)", "ADDRESS": "538 STEWART AVENUE", "CITY": "BROOKLYN", "STATE": "NY", "ZIP": "11222", "ZIP4": "NOT AVAILABLE", "TELEPHONE": "(718) 387-2077", "TYPE": "C&D", "STATUS": "NOT AVAILABLE", "COUNTY": "KINGS", "COUNTYFIPS": "36047", "COUNTRY": "USA", "LATITUDE": 40.725646999809271, "LONGITUDE": -73.933251999779941, "NAICS_CODE": "562212", "NAICS_DESC": "SOLID WASTE LANDFILLS, NONHAZARDOUS", "SOURCE": "https://data.ny.gov/Energy-Environment/Solid-Waste-Management-Facilities/2fni-raj8/data", "SOURCEDATE": "2022-02-22", "VAL_METHOD": "IMAGERY", "VAL_DATE": "2022-04-20", "WEBSITE": "NOT AVAILABLE", "REG_ID": "NOT AVAILABLE", "STATUSDATE": "NOT AVAILABLE", "OWNER": "DANIEL M. COLASUONNO", "CLOSE_DATE": "NOT AVAILABLE", "PERMIT_NO": "NOT AVAILABLE" }, "geometry": { "type": "Point", "coordinates": [ -8230211.965299999341369, 4971958.493299998342991 ] } },
{ "type": "Feature", "properties": { "OBJECTID": 8935, "SWID": 784357, "NAME": "SAFEWAY CONSTRUCTION ENTERPRISES", "ADDRESS": "54-60 44TH STREET", "CITY": "MASPETH", "STATE": "NY", "ZIP": "11378", "ZIP4": "NOT AVAILABLE", "TELEPHONE": "(917) 416-0498", "TYPE": "C&D", "STATUS": "NOT AVAILABLE", "COUNTY": "QUEENS", "COUNTYFIPS": "36081", "COUNTRY": "USA", "LATITUDE": 40.730450050429511, "LONGITUDE": -73.924067149079633, "NAICS_CODE": "562212", "NAICS_DESC": "SOLID WASTE LANDFILLS, NONHAZARDOUS", "SOURCE": "https://data.ny.gov/Energy-Environment/Solid-Waste-Management-Facilities/2fni-raj8/data", "SOURCEDATE": "2022-02-22", "VAL_METHOD": "IMAGERY", "VAL_DATE": "2022-04-20", "WEBSITE": "NOT AVAILABLE", "REG_ID": "NOT AVAILABLE", "STATUSDATE": "NOT AVAILABLE", "OWNER": "STEVE CESTARO", "CLOSE_DATE": "NOT AVAILABLE", "PERMIT_NO": "NOT AVAILABLE" }, "geometry": { "type": "Point", "coordinates": [ -8229189.512399999424815, 4972664.038999997079372 ] } },
{ "type": "Feature", "properties": { "OBJECTID": 8962, "SWID": 784384, "NAME": "PEBBLE LANE ASSOCIATES LLC", "ADDRESS": "57-00 47TH STREET", "CITY": "MASPETH", "STATE": "NY", "ZIP": "11378", "ZIP4": "NOT AVAILABLE", "TELEPHONE": "(718) 456-2520", "TYPE": "C&D", "STATUS": "NOT AVAILABLE", "COUNTY": "QUEENS", "COUNTYFIPS": "36081", "COUNTRY": "USA", "LATITUDE": 40.718888251091983, "LONGITUDE": -73.922934356735141, "NAICS_CODE": "562212", "NAICS_DESC": "SOLID WASTE LANDFILLS, NONHAZARDOUS", "SOURCE": "https://data.ny.gov/Energy-Environment/Solid-Waste-Management-Facilities/2fni-raj8/data", "SOURCEDATE": "2022-02-22", "VAL_METHOD": "IMAGERY", "VAL_DATE": "2022-04-20", "WEBSITE": "NOT AVAILABLE", "REG_ID": "NOT AVAILABLE", "STATUSDATE": "NOT AVAILABLE", "OWNER": "US CONCRETE; INC", "CLOSE_DATE": "NOT AVAILABLE", "PERMIT_NO": "NOT AVAILABLE" }, "geometry": { "type": "Point", "coordinates": [ -8229063.410499999299645, 4970965.750900000333786 ] } },
{ "type": "Feature", "properties": { "OBJECTID": 8966, "SWID": 784388, "NAME": "NYCDOS MTS @ HAMILTON AVE.", "ADDRESS": "500 HAMILTON AVENUE", "CITY": "BROOKLYN", "STATE": "NY", "ZIP": "11232", "ZIP4": "NOT AVAILABLE", "TELEPHONE": "(212) 837-8030", "TYPE": "TRANSFER", "STATUS": "NOT AVAILABLE", "COUNTY": "KINGS", "COUNTYFIPS": "36047", "COUNTRY": "USA", "LATITUDE": 40.669562999932566, "LONGITUDE": -73.99740500034045, "NAICS_CODE": "562111", "NAICS_DESC": "WASTE TRANSFER STATIONS, NONHAZARDOUS SOLID", "SOURCE": "https://data.ny.gov/Energy-Environment/Solid-Waste-Management-Facilities/2fni-raj8/data", "SOURCEDATE": "2022-02-22", "VAL_METHOD": "GEOCODE", "VAL_DATE": "2022-04-20", "WEBSITE": "NOT AVAILABLE", "REG_ID": "NOT AVAILABLE", "STATUSDATE": "NOT AVAILABLE", "OWNER": "NEW YORK CITY DEPARTMENT OF SANITATION", "CLOSE_DATE": "NOT AVAILABLE", "PERMIT_NO": "NOT AVAILABLE" }, "geometry": { "type": "Point", "coordinates": [ -8237353.444700000807643, 4963723.780599996447563 ] } },
{ "type": "Feature", "properties": { "OBJECTID": 8996, "SWID": 784418, "NAME": "BROOKLYN C&D LLC", "ADDRESS": "548 VARICK AVENUE", "CITY": "BROOKLYN", "STATE": "NY", "ZIP": "11222", "ZIP4": "NOT AVAILABLE", "TELEPHONE": "(718) 349-7555", "TYPE": "C&D", "STATUS": "NOT AVAILABLE", "COUNTY": "KINGS", "COUNTYFIPS": "36047", "COUNTRY": "USA", "LATITUDE": 40.725387856564389, "LONGITUDE": -73.934442071744172, "NAICS_CODE": "562212", "NAICS_DESC": "SOLID WASTE LANDFILLS, NONHAZARDOUS", "SOURCE": "https://data.ny.gov/Energy-Environment/Solid-Waste-Management-Facilities/2fni-raj8/data", "SOURCEDATE": "2022-02-22", "VAL_METHOD": "IMAGERY", "VAL_DATE": "2022-04-20", "WEBSITE": "NOT AVAILABLE", "REG_ID": "NOT AVAILABLE", "STATUSDATE": "NOT AVAILABLE", "OWNER": "BROOKLYN C&D LLC", "CLOSE_DATE": "NOT AVAILABLE", "PERMIT_NO": "NOT AVAILABLE" }, "geometry": { "type": "Point", "coordinates": [ -8230344.443499999120831, 4971920.427799999713898 ] } },
{ "type": "Feature", "properties": { "OBJECTID": 9002, "SWID": 784424, "NAME": "NEW STYLE RECYCLING CORP", "ADDRESS": "49-10 GRAND AVENUE", "CITY": "MASPETH", "STATE": "NY", "ZIP": "11378", "ZIP4": "NOT AVAILABLE", "TELEPHONE": "(718) 326-4175", "TYPE": "TRANSFER", "STATUS": "NOT AVAILABLE", "COUNTY": "QUEENS", "COUNTYFIPS": "36081", "COUNTRY": "USA", "LATITUDE": 40.717369232304293, "LONGITUDE": -73.918752849164605, "NAICS_CODE": "562111", "NAICS_DESC": "WASTE TRANSFER STATIONS, NONHAZARDOUS SOLID", "SOURCE": "https://data.ny.gov/Energy-Environment/Solid-Waste-Management-Facilities/2fni-raj8/data", "SOURCEDATE": "2022-02-22", "VAL_METHOD": "IMAGERY", "VAL_DATE": "2022-04-20", "WEBSITE": "NOT AVAILABLE", "REG_ID": "NOT AVAILABLE", "STATUSDATE": "NOT AVAILABLE", "OWNER": "ANTOINETTE CRISTINA", "CLOSE_DATE": "NOT AVAILABLE", "PERMIT_NO": "NOT AVAILABLE" }, "geometry": { "type": "Point", "coordinates": [ -8228597.927200000733137, 4970742.647299997508526 ] } },
{ "type": "Feature", "properties": { "OBJECTID": 9008, "SWID": 784430, "NAME": "ALLOCCO RECYCLING LTD (KINGSLAND AVE)", "ADDRESS": "540 KINGSLAND AVENUE", "CITY": "BROOKLYN", "STATE": "NY", "ZIP": "11222", "ZIP4": "NOT AVAILABLE", "TELEPHONE": "(718) 349-3094", "TYPE": "C&D", "STATUS": "NOT AVAILABLE", "COUNTY": "KINGS", "COUNTYFIPS": "36047", "COUNTRY": "USA", "LATITUDE": 40.735389223334039, "LONGITUDE": -73.944483847751314, "NAICS_CODE": "562212", "NAICS_DESC": "SOLID WASTE LANDFILLS, NONHAZARDOUS", "SOURCE": "https://data.ny.gov/Energy-Environment/Solid-Waste-Management-Facilities/2fni-raj8/data", "SOURCEDATE": "2022-02-22", "VAL_METHOD": "IMAGERY", "VAL_DATE": "2022-04-20", "WEBSITE": "NOT AVAILABLE", "REG_ID": "NOT AVAILABLE", "STATUSDATE": "NOT AVAILABLE", "OWNER": "MICHAEL ALLOCCO", "CLOSE_DATE": "NOT AVAILABLE", "PERMIT_NO": "NOT AVAILABLE" }, "geometry": { "type": "Point", "coordinates": [ -8231462.288899999111891, 4973389.633599996566772 ] } },
{ "type": "Feature", "properties": { "OBJECTID": 9018, "SWID": 784440, "NAME": "GADS INC", "ADDRESS": "594 SCHOLES STREET", "CITY": "BROOKLYN", "STATE": "NY", "ZIP": "11237", "ZIP4": "NOT AVAILABLE", "TELEPHONE": "(718) 416-2190", "TYPE": "C&D", "STATUS": "NOT AVAILABLE", "COUNTY": "KINGS", "COUNTYFIPS": "36047", "COUNTRY": "USA", "LATITUDE": 40.712399554395979, "LONGITUDE": -73.924913088268397, "NAICS_CODE": "562212", "NAICS_DESC": "SOLID WASTE LANDFILLS, NONHAZARDOUS", "SOURCE": "https://data.ny.gov/Energy-Environment/Solid-Waste-Management-Facilities/2fni-raj8/data", "SOURCEDATE": "2022-02-22", "VAL_METHOD": "GEOCODE", "VAL_DATE": "2022-04-20", "WEBSITE": "NOT AVAILABLE", "REG_ID": "NOT AVAILABLE", "STATUSDATE": "NOT AVAILABLE", "OWNER": "MICHAEL ALLOCCO", "CLOSE_DATE": "NOT AVAILABLE", "PERMIT_NO": "NOT AVAILABLE" }, "geometry": { "type": "Point", "coordinates": [ -8229283.681900000199676, 4970012.769199997186661 ] } },
{ "type": "Feature", "properties": { "OBJECTID": 9030, "SWID": 784452, "NAME": "ATLAS ROLL-OFF CORP", "ADDRESS": "895 ESSEX STREET", "CITY": "BROOKLYN", "STATE": "NY", "ZIP": "11208", "ZIP4": "NOT AVAILABLE", "TELEPHONE": "(718) 345-6451", "TYPE": "C&D", "STATUS": "NOT AVAILABLE", "COUNTY": "KINGS", "COUNTYFIPS": "36047", "COUNTRY": "USA", "LATITUDE": 40.662431125196349, "LONGITUDE": -73.875974410690446, "NAICS_CODE": "562212", "NAICS_DESC": "SOLID WASTE LANDFILLS, NONHAZARDOUS", "SOURCE": "https://data.ny.gov/Energy-Environment/Solid-Waste-Management-Facilities/2fni-raj8/data", "SOURCEDATE": "2022-02-22", "VAL_METHOD": "IMAGERY", "VAL_DATE": "2022-04-20", "WEBSITE": "NOT AVAILABLE", "REG_ID": "NOT AVAILABLE", "STATUSDATE": "NOT AVAILABLE", "OWNER": "JOHN POLISNELLI", "CLOSE_DATE": "NOT AVAILABLE", "PERMIT_NO": "NOT AVAILABLE" }, "geometry": { "type": "Point", "coordinates": [ -8223835.85329999960959, 4962677.116800002753735 ] } },
{ "type": "Feature", "properties": { "OBJECTID": 9036, "SWID": 784458, "NAME": "NEW YORK PAVING INC", "ADDRESS": "37-18 RAILROAD AVE", "CITY": "LONG ISLAND CITY", "STATE": "NY", "ZIP": "11101", "ZIP4": "NOT AVAILABLE", "TELEPHONE": "(718) 482-0780", "TYPE": "C&D", "STATUS": "NOT AVAILABLE", "COUNTY": "QUEENS", "COUNTYFIPS": "36081", "COUNTRY": "USA", "LATITUDE": 40.73339409985789, "LONGITUDE": -73.938968406366826, "NAICS_CODE": "562212", "NAICS_DESC": "SOLID WASTE LANDFILLS, NONHAZARDOUS", "SOURCE": "https://data.ny.gov/Energy-Environment/Solid-Waste-Management-Facilities/2fni-raj8/data", "SOURCEDATE": "2022-02-22", "VAL_METHOD": "IMAGERY", "VAL_DATE": "2022-04-20", "WEBSITE": "NOT AVAILABLE", "REG_ID": "NOT AVAILABLE", "STATUSDATE": "NOT AVAILABLE", "OWNER": "ANTHONY BARTONE", "CLOSE_DATE": "NOT AVAILABLE", "PERMIT_NO": "NOT AVAILABLE" }, "geometry": { "type": "Point", "coordinates": [ -8230848.31279999949038, 4973096.531300000846386 ] } },
{ "type": "Feature", "properties": { "OBJECTID": 9053, "SWID": 784475, "NAME": "POINT RECYCLING LTD", "ADDRESS": "686 MORGAN AVENUE", "CITY": "BROOKLYN", "STATE": "NY", "ZIP": "11222", "ZIP4": "NOT AVAILABLE", "TELEPHONE": "(718) 384-6372", "TYPE": "C&D", "STATUS": "NOT AVAILABLE", "COUNTY": "KINGS", "COUNTYFIPS": "36047", "COUNTRY": "USA", "LATITUDE": 40.727756051200856, "LONGITUDE": -73.939916099348466, "NAICS_CODE": "562212", "NAICS_DESC": "SOLID WASTE LANDFILLS, NONHAZARDOUS", "SOURCE": "https://data.ny.gov/Energy-Environment/Solid-Waste-Management-Facilities/2fni-raj8/data", "SOURCEDATE": "2022-02-22", "VAL_METHOD": "IMAGERY", "VAL_DATE": "2022-04-20", "WEBSITE": "NOT AVAILABLE", "REG_ID": "NOT AVAILABLE", "STATUSDATE": "NOT AVAILABLE", "OWNER": "NICHOLAS MARMO", "CLOSE_DATE": "NOT AVAILABLE", "PERMIT_NO": "NOT AVAILABLE" }, "geometry": { "type": "Point", "coordinates": [ -8230953.809499999508262, 4972268.296800002455711 ] } },
{ "type": "Feature", "properties": { "OBJECTID": 9062, "SWID": 784484, "NAME": "CONSOLIDATED EDISON OF NY - FILL TS #8", "ADDRESS": "276-290 AVENUE C ( EAST 16TH STREET)", "CITY": "NEW YORK", "STATE": "NY", "ZIP": "10009", "ZIP4": "NOT AVAILABLE", "TELEPHONE": "(212) 253-9553", "TYPE": "C&D", "STATUS": "NOT AVAILABLE", "COUNTY": "NEW YORK", "COUNTYFIPS": "36061", "COUNTRY": "USA", "LATITUDE": 40.729477045129563, "LONGITUDE": -73.973985997755562, "NAICS_CODE": "562212", "NAICS_DESC": "SOLID WASTE LANDFILLS, NONHAZARDOUS", "SOURCE": "https://data.ny.gov/Energy-Environment/Solid-Waste-Management-Facilities/2fni-raj8/data", "SOURCEDATE": "2022-02-22", "VAL_METHOD": "GEOCODE", "VAL_DATE": "2022-04-20", "WEBSITE": "NOT AVAILABLE", "REG_ID": "NOT AVAILABLE", "STATUSDATE": "NOT AVAILABLE", "OWNER": "CONSOLIDATED EDISON COMPANY OF NEW YORK", "CLOSE_DATE": "NOT AVAILABLE", "PERMIT_NO": "NOT AVAILABLE" }, "geometry": { "type": "Point", "coordinates": [ -8234746.453199999406934, 4972521.104999996721745 ] } },
{ "type": "Feature", "properties": { "OBJECTID": 9078, "SWID": 784500, "NAME": "COOPER TANK AND WELDING CORP", "ADDRESS": "222 MASPETH AVENUE", "CITY": "BROOKLYN", "STATE": "NY", "ZIP": "11211", "ZIP4": "NOT AVAILABLE", "TELEPHONE": "(718) 384-7727", "TYPE": "C&D", "STATUS": "NOT AVAILABLE", "COUNTY": "KINGS", "COUNTYFIPS": "36047", "COUNTRY": "USA", "LATITUDE": 40.716986250615037, "LONGITUDE": -73.933659392666812, "NAICS_CODE": "562212", "NAICS_DESC": "SOLID WASTE LANDFILLS, NONHAZARDOUS", "SOURCE": "https://data.ny.gov/Energy-Environment/Solid-Waste-Management-Facilities/2fni-raj8/data", "SOURCEDATE": "2022-02-22", "VAL_METHOD": "IMAGERY", "VAL_DATE": "2022-04-20", "WEBSITE": "NOT AVAILABLE", "REG_ID": "NOT AVAILABLE", "STATUSDATE": "NOT AVAILABLE", "OWNER": "ADRIENNE COOPER", "CLOSE_DATE": "NOT AVAILABLE", "PERMIT_NO": "NOT AVAILABLE" }, "geometry": { "type": "Point", "coordinates": [ -8230257.316099999472499, 4970686.398299999535084 ] } },
{ "type": "Feature", "properties": { "OBJECTID": 9081, "SWID": 784519, "NAME": "NATIONAL GRID", "ADDRESS": "287 MASPETH AVENUE", "CITY": "BROOKLYN", "STATE": "NY", "ZIP": "11222", "ZIP4": "NOT AVAILABLE", "TELEPHONE": "(718) 270-5786", "TYPE": "C&D", "STATUS": "NOT AVAILABLE", "COUNTY": "KINGS", "COUNTYFIPS": "36047", "COUNTRY": "USA", "LATITUDE": 40.719535789944814, "LONGITUDE": -73.92646612930838, "NAICS_CODE": "562212", "NAICS_DESC": "SOLID WASTE LANDFILLS, NONHAZARDOUS", "SOURCE": "https://data.ny.gov/Energy-Environment/Solid-Waste-Management-Facilities/2fni-raj8/data", "SOURCEDATE": "2022-02-22", "VAL_METHOD": "IMAGERY", "VAL_DATE": "2022-04-20", "WEBSITE": "NOT AVAILABLE", "REG_ID": "NOT AVAILABLE", "STATUSDATE": "NOT AVAILABLE", "OWNER": "MATTIA AURIEMMA", "CLOSE_DATE": "NOT AVAILABLE", "PERMIT_NO": "NOT AVAILABLE" }, "geometry": { "type": "Point", "coordinates": [ -8229456.565700000151992, 4971060.85869999974966 ] } },
{ "type": "Feature", "properties": { "OBJECTID": 9097, "SWID": 784519, "NAME": "NATIONAL GRID", "ADDRESS": "287 MASPETH AVENUE", "CITY": "BROOKLYN", "STATE": "NY", "ZIP": "11222", "ZIP4": "NOT AVAILABLE", "TELEPHONE": "(718) 270-5786", "TYPE": "C&D", "STATUS": "NOT AVAILABLE", "COUNTY": "KINGS", "COUNTYFIPS": "36047", "COUNTRY": "USA", "LATITUDE": 40.719535789944814, "LONGITUDE": -73.92646612930838, "NAICS_CODE": "562212", "NAICS_DESC": "SOLID WASTE LANDFILLS, NONHAZARDOUS", "SOURCE": "https://data.ny.gov/Energy-Environment/Solid-Waste-Management-Facilities/2fni-raj8/data", "SOURCEDATE": "2022-02-22", "VAL_METHOD": "IMAGERY", "VAL_DATE": "2022-04-20", "WEBSITE": "NOT AVAILABLE", "REG_ID": "NOT AVAILABLE", "STATUSDATE": "NOT AVAILABLE", "OWNER": "MATTIA AURIEMMA", "CLOSE_DATE": "NOT AVAILABLE", "PERMIT_NO": "NOT AVAILABLE" }, "geometry": { "type": "Point", "coordinates": [ -8229456.565700000151992, 4971060.85869999974966 ] } },
{ "type": "Feature", "properties": { "OBJECTID": 1817, "SWID": 361890, "NAME": "AMERICAN RECYCLING MANAGEMENT LLC", "ADDRESS": "172-33 DOUGLAS AVENUE", "CITY": "JAMAICA", "STATE": "NY", "ZIP": "11433", "ZIP4": "NOT AVAILABLE", "TELEPHONE": "(718) 739-2301", "TYPE": "TRANSFER", "STATUS": "OPEN", "COUNTY": "QUEENS", "COUNTYFIPS": "36081", "COUNTRY": "USA", "LATITUDE": 40.704953178646349, "LONGITUDE": -73.786459827858721, "NAICS_CODE": "562111", "NAICS_DESC": "WASTE TRANSFER STATIONS, NONHAZARDOUS SOLID", "SOURCE": "https://data.ny.gov/Energy-Environment/Transfer-Stations-Solid-Waste-Management-Facilitie/avuu-s8z3", "SOURCEDATE": "2019-05-02", "VAL_METHOD": "IMAGERY/OTHER", "VAL_DATE": "2020-04-28", "WEBSITE": "NOT AVAILABLE", "REG_ID": "NOT AVAILABLE", "STATUSDATE": "NOT AVAILABLE", "OWNER": "CHRISTOPHER HEIN", "CLOSE_DATE": "NOT AVAILABLE", "PERMIT_NO": "NOT AVAILABLE" }, "geometry": { "type": "Point", "coordinates": [ -8213871.135500000789762, 4968919.249600000679493 ] } },
{ "type": "Feature", "properties": { "OBJECTID": 1843, "SWID": 361879, "NAME": "ACTION ENVIRONMENTAL SYSTEMS INC BRONX TS", "ADDRESS": "920 EAST 132 STREET", "CITY": "BRONX", "STATE": "NY", "ZIP": "10454", "ZIP4": "NOT AVAILABLE", "TELEPHONE": "(973) 328-7100", "TYPE": "TRANSFER", "STATUS": "OPEN", "COUNTY": "BRONX", "COUNTYFIPS": "36005", "COUNTRY": "USA", "LATITUDE": 40.798419134335631, "LONGITUDE": -73.910897867342669, "NAICS_CODE": "562111", "NAICS_DESC": "WASTE TRANSFER STATIONS, NONHAZARDOUS SOLID", "SOURCE": "https://data.ny.gov/Energy-Environment/Transfer-Stations-Solid-Waste-Management-Facilitie/avuu-s8z3", "SOURCEDATE": "2019-05-02", "VAL_METHOD": "IMAGERY/OTHER", "VAL_DATE": "2020-04-28", "WEBSITE": "NOT AVAILABLE", "REG_ID": "NOT AVAILABLE", "STATUSDATE": "6/4/2015", "OWNER": "ACTION CARTING ENVIRONMENTAL SERVICES LLC", "CLOSE_DATE": "NOT AVAILABLE", "PERMIT_NO": "2-6007-00015/00001" }, "geometry": { "type": "Point", "coordinates": [ -8227723.514699999243021, 4982653.846000000834465 ] } },
{ "type": "Feature", "properties": { "OBJECTID": 2032, "SWID": 362091, "NAME": "JAMAICA RECYCLING (LIBERTY)", "ADDRESS": "94-29 165TH STREET", "CITY": "JAMAICA", "STATE": "NY", "ZIP": "11433", "ZIP4": "NOT AVAILABLE", "TELEPHONE": "(718) 739-7224", "TYPE": "TRANSFER", "STATUS": "OPEN", "COUNTY": "QUEENS", "COUNTYFIPS": "36081", "COUNTRY": "USA", "LATITUDE": 40.703471512300496, "LONGITUDE": -73.79297678575, "NAICS_CODE": "562111", "NAICS_DESC": "WASTE TRANSFER STATIONS, NONHAZARDOUS SOLID", "SOURCE": "https://data.ny.gov/Energy-Environment/Transfer-Stations-Solid-Waste-Management-Facilitie/avuu-s8z3", "SOURCEDATE": "2019-05-02", "VAL_METHOD": "IMAGERY/OTHER", "VAL_DATE": "2020-04-28", "WEBSITE": "NOT AVAILABLE", "REG_ID": "NOT AVAILABLE", "STATUSDATE": "NOT AVAILABLE", "OWNER": "MICHAEL BELLINO", "CLOSE_DATE": "NOT AVAILABLE", "PERMIT_NO": "2-6307-00126/00001" }, "geometry": { "type": "Point", "coordinates": [ -8214596.599899999797344, 4968701.677599996328354 ] } },
{ "type": "Feature", "properties": { "OBJECTID": 2193, "SWID": 362252, "NAME": "REGAL RECYCLING INC", "ADDRESS": "172-06 DOUGLAS AVENUE", "CITY": "JAMAICA", "STATE": "NY", "ZIP": "11433", "ZIP4": "NOT AVAILABLE", "TELEPHONE": "(718) 852-9330", "TYPE": "TRANSFER", "STATUS": "OPEN", "COUNTY": "QUEENS", "COUNTYFIPS": "36081", "COUNTRY": "USA", "LATITUDE": 40.704565162552285, "LONGITUDE": -73.788050992059596, "NAICS_CODE": "562111", "NAICS_DESC": "WASTE TRANSFER STATIONS, NONHAZARDOUS SOLID", "SOURCE": "https://data.ny.gov/Energy-Environment/Transfer-Stations-Solid-Waste-Management-Facilitie/avuu-s8z3", "SOURCEDATE": "2019-05-02", "VAL_METHOD": "IMAGERY/OTHER", "VAL_DATE": "2020-04-28", "WEBSITE": "NOT AVAILABLE", "REG_ID": "NOT AVAILABLE", "STATUSDATE": "6/18/2018", "OWNER": "REGAL RECYCLING COMPANY INC", "CLOSE_DATE": "NOT AVAILABLE", "PERMIT_NO": "2-6307-00008/00007" }, "geometry": { "type": "Point", "coordinates": [ -8214048.2631, 4968862.271799996495247 ] } },
{ "type": "Feature", "properties": { "OBJECTID": 2294, "SWID": 362351, "NAME": "TULLY ENVIRONMENTAL INC. - FLUSHING", "ADDRESS": "127-20 34TH AVENUE", "CITY": "FLUSHING", "STATE": "NY", "ZIP": "11368", "ZIP4": "NOT AVAILABLE", "TELEPHONE": "(718) 446-5001", "TYPE": "TRANSFER", "STATUS": "OPEN", "COUNTY": "QUEENS", "COUNTYFIPS": "36081", "COUNTRY": "USA", "LATITUDE": 40.760621310425165, "LONGITUDE": -73.841722372589402, "NAICS_CODE": "562111", "NAICS_DESC": "WASTE TRANSFER STATIONS, NONHAZARDOUS SOLID", "SOURCE": "https://data.ny.gov/Energy-Environment/Transfer-Stations-Solid-Waste-Management-Facilitie/avuu-s8z3", "SOURCEDATE": "2019-05-02", "VAL_METHOD": "IMAGERY/OTHER", "VAL_DATE": "2020-04-28", "WEBSITE": "NOT AVAILABLE", "REG_ID": "NOT AVAILABLE", "STATUSDATE": "NOT AVAILABLE", "OWNER": "TULLY ENVIRONMENTAL INC", "CLOSE_DATE": "NOT AVAILABLE", "PERMIT_NO": "NOT AVAILABLE" }, "geometry": { "type": "Point", "coordinates": [ -8220022.933800000697374, 4977097.221600003540516 ] } },
{ "type": "Feature", "properties": { "OBJECTID": 2346, "SWID": 362409, "NAME": "WMNY LLC HARLEM RIVER YARD", "ADDRESS": "98 LINCOLN AVENUE", "CITY": "BRONX", "STATE": "NY", "ZIP": "10454", "ZIP4": "NOT AVAILABLE", "TELEPHONE": "NOT AVAILABLE", "TYPE": "TRANSFER", "STATUS": "OPEN", "COUNTY": "BRONX", "COUNTYFIPS": "36005", "COUNTRY": "USA", "LATITUDE": 40.803739617089718, "LONGITUDE": -73.926448892902044, "NAICS_CODE": "562111", "NAICS_DESC": "WASTE TRANSFER STATIONS, NONHAZARDOUS SOLID", "SOURCE": "https://data.ny.gov/Energy-Environment/Transfer-Stations-Solid-Waste-Management-Facilitie/avuu-s8z3", "SOURCEDATE": "2019-05-02", "VAL_METHOD": "IMAGERY/OTHER", "VAL_DATE": "2020-04-28", "WEBSITE": "NOT AVAILABLE", "REG_ID": "NOT AVAILABLE", "STATUSDATE": "7/30/2019", "OWNER": "WASTE MANAGEMENT OF NY; LLC", "CLOSE_DATE": "NOT AVAILABLE", "PERMIT_NO": "2-6007-00159/00009" }, "geometry": { "type": "Point", "coordinates": [ -8229454.6469, 4983436.259400002658367 ] } },
{ "type": "Feature", "properties": { "OBJECTID": 3261, "SWID": 362440, "NAME": "CON EDISON FARRINGTON FLUSH TRUCK FACILITY", "ADDRESS": "31-06 FARRINGTON STREET", "CITY": "QUEENS", "STATE": "NY", "ZIP": "11355", "ZIP4": "NOT AVAILABLE", "TELEPHONE": "(718) 353-3482", "TYPE": "TRANSFER", "STATUS": "CLOSED", "COUNTY": "QUEENS", "COUNTYFIPS": "36081", "COUNTRY": "USA", "LATITUDE": 40.767881943796738, "LONGITUDE": -73.834569783768487, "NAICS_CODE": "562111", "NAICS_DESC": "WASTE TRANSFER STATIONS, NONHAZARDOUS SOLID", "SOURCE": "https://data.ny.gov/Energy-Environment/Transfer-Stations-Solid-Waste-Management-Facilitie/avuu-s8z3", "SOURCEDATE": "2019-05-02", "VAL_METHOD": "IMAGERY/OTHER", "VAL_DATE": "2020-04-28", "WEBSITE": "NOT AVAILABLE", "REG_ID": "NOT AVAILABLE", "STATUSDATE": "NOT AVAILABLE", "OWNER": "NOT AVAILABLE", "CLOSE_DATE": "NOT AVAILABLE", "PERMIT_NO": "NOT AVAILABLE" }, "geometry": { "type": "Point", "coordinates": [ -8219226.711300000548363, 4978164.355599999427795 ] } },
{ "type": "Feature", "properties": { "OBJECTID": 4265, "SWID": 782905, "NAME": "NYCDOS-NORTH SHORE MTS", "ADDRESS": "31 AVE & FLUSHING BAY", "CITY": "COLLEGE POINT", "STATE": "NY", "ZIP": "11354", "ZIP4": "NOT AVAILABLE", "TELEPHONE": "(212) 837-8030", "TYPE": "TRANSFER", "STATUS": "OPEN", "COUNTY": "QUEENS", "COUNTYFIPS": "36081", "COUNTRY": "USA", "LATITUDE": 40.761155128206667, "LONGITUDE": -73.867839385379284, "NAICS_CODE": "562111", "NAICS_DESC": "WASTE TRANSFER STATIONS, NONHAZARDOUS SOLID", "SOURCE": "https://data.ny.gov/Energy-Environment/Solid-Waste-Management-Facilities/2fni-raj8/data", "SOURCEDATE": "2019-05-02", "VAL_METHOD": "UNVERIFIED", "VAL_DATE": "2020-04-28", "WEBSITE": "NOT AVAILABLE", "REG_ID": "NOT AVAILABLE", "STATUSDATE": "NOT AVAILABLE", "OWNER": "NOT AVAILABLE", "CLOSE_DATE": "NOT AVAILABLE", "PERMIT_NO": "2-6302-00007/00019" }, "geometry": { "type": "Point", "coordinates": [ -8222930.2664, 4977175.675700001418591 ] } },
{ "type": "Feature", "properties": { "OBJECTID": 8700, "SWID": 784122, "NAME": "DSNY NORTH SHORE HOUSEHOLD SPECIAL WASTE DROP-OFF FACILITY", "ADDRESS": "120-15 31ST AVENUE", "CITY": "COLLEGE POINT", "STATE": "NY", "ZIP": "11354", "ZIP4": "NOT AVAILABLE", "TELEPHONE": "(212) 437-4668", "TYPE": "TRANSFER", "STATUS": "NOT AVAILABLE", "COUNTY": "QUEENS", "COUNTYFIPS": "36081", "COUNTRY": "USA", "LATITUDE": 40.769938999984902, "LONGITUDE": -73.847985999554226, "NAICS_CODE": "562111", "NAICS_DESC": "WASTE TRANSFER STATIONS, NONHAZARDOUS SOLID", "SOURCE": "https://data.ny.gov/Energy-Environment/Solid-Waste-Management-Facilities/2fni-raj8/data", "SOURCEDATE": "2022-02-22", "VAL_METHOD": "GEOCODE", "VAL_DATE": "2022-04-20", "WEBSITE": "NOT AVAILABLE", "REG_ID": "NOT AVAILABLE", "STATUSDATE": "NOT AVAILABLE", "OWNER": "NYC DEPT OF SANITATION", "CLOSE_DATE": "NOT AVAILABLE", "PERMIT_NO": "NOT AVAILABLE" }, "geometry": { "type": "Point", "coordinates": [ -8220720.197599999606609, 4978466.713299997150898 ] } },
{ "type": "Feature", "properties": { "OBJECTID": 8720, "SWID": 784142, "NAME": "DURANTE BROS CONSTRUCTION CORP.", "ADDRESS": "31-40 123RD STREET", "CITY": "FLUSHING", "STATE": "NY", "ZIP": "11354", "ZIP4": "NOT AVAILABLE", "TELEPHONE": "(718) 762-2500", "TYPE": "C&D", "STATUS": "NOT AVAILABLE", "COUNTY": "QUEENS", "COUNTYFIPS": "36081", "COUNTRY": "USA", "LATITUDE": 40.768523411326441, "LONGITUDE": -73.846180097933143, "NAICS_CODE": "562212", "NAICS_DESC": "SOLID WASTE LANDFILLS, NONHAZARDOUS", "SOURCE": "https://data.ny.gov/Energy-Environment/Solid-Waste-Management-Facilities/2fni-raj8/data", "SOURCEDATE": "2022-02-22", "VAL_METHOD": "IMAGERY", "VAL_DATE": "2022-04-20", "WEBSITE": "NOT AVAILABLE", "REG_ID": "NOT AVAILABLE", "STATUSDATE": "NOT AVAILABLE", "OWNER": "JOHN AND MICHAEL DURANTE", "CLOSE_DATE": "NOT AVAILABLE", "PERMIT_NO": "NOT AVAILABLE" }, "geometry": { "type": "Point", "coordinates": [ -8220519.165500000119209, 4978258.641099996864796 ] } },
{ "type": "Feature", "properties": { "OBJECTID": 8773, "SWID": 784195, "NAME": "ALL CITY RECYCLING LLC", "ADDRESS": "850 EAST 133RD STREET", "CITY": "BRONX", "STATE": "NY", "ZIP": "10454", "ZIP4": "NOT AVAILABLE", "TELEPHONE": "(718) 585-0700", "TYPE": "C&D", "STATUS": "NOT AVAILABLE", "COUNTY": "BRONX", "COUNTYFIPS": "36005", "COUNTRY": "USA", "LATITUDE": 40.800062637280917, "LONGITUDE": -73.912145789996146, "NAICS_CODE": "562212", "NAICS_DESC": "SOLID WASTE LANDFILLS, NONHAZARDOUS", "SOURCE": "https://data.ny.gov/Energy-Environment/Solid-Waste-Management-Facilities/2fni-raj8/data", "SOURCEDATE": "2022-02-22", "VAL_METHOD": "IMAGERY", "VAL_DATE": "2022-04-20", "WEBSITE": "NOT AVAILABLE", "REG_ID": "NOT AVAILABLE", "STATUSDATE": "NOT AVAILABLE", "OWNER": "FRANK TODINO", "CLOSE_DATE": "NOT AVAILABLE", "PERMIT_NO": "NOT AVAILABLE" }, "geometry": { "type": "Point", "coordinates": [ -8227862.432800000533462, 4982895.527699999511242 ] } },
{ "type": "Feature", "properties": { "OBJECTID": 8799, "SWID": 784221, "NAME": "RUSSO RECYCLING COMPANY/WHIP REALTY CORP", "ADDRESS": "248-12 BROOKVILLE BLVD", "CITY": "ROSEDALE", "STATE": "NY", "ZIP": "11422", "ZIP4": "NOT AVAILABLE", "TELEPHONE": "(718) 723-1111", "TYPE": "C&D", "STATUS": "NOT AVAILABLE", "COUNTY": "QUEENS", "COUNTYFIPS": "36081", "COUNTRY": "USA", "LATITUDE": 40.638639298764701, "LONGITUDE": -73.743055445952052, "NAICS_CODE": "562212", "NAICS_DESC": "SOLID WASTE LANDFILLS, NONHAZARDOUS", "SOURCE": "https://data.ny.gov/Energy-Environment/Solid-Waste-Management-Facilities/2fni-raj8/data", "SOURCEDATE": "2022-02-22", "VAL_METHOD": "IMAGERY", "VAL_DATE": "2022-04-20", "WEBSITE": "NOT AVAILABLE", "REG_ID": "NOT AVAILABLE", "STATUSDATE": "NOT AVAILABLE", "OWNER": "WHIP REALTY CORP", "CLOSE_DATE": "NOT AVAILABLE", "PERMIT_NO": "NOT AVAILABLE" }, "geometry": { "type": "Point", "coordinates": [ -8209039.381799999624491, 4959186.271300002932549 ] } },
{ "type": "Feature", "properties": { "OBJECTID": 8809, "SWID": 784231, "NAME": "DSNY SOUTH BRONX HOUSEHOLD SPECIAL WASTE DROP-OFF SITE", "ADDRESS": "FOOT OF FARRAGUT STREET", "CITY": "BRONX", "STATE": "NY", "ZIP": "10474", "ZIP4": "NOT AVAILABLE", "TELEPHONE": "(212) 437-4657", "TYPE": "TRANSFER", "STATUS": "NOT AVAILABLE", "COUNTY": "BRONX", "COUNTYFIPS": "36005", "COUNTRY": "USA", "LATITUDE": 40.802961295227647, "LONGITUDE": -73.87368997801002, "NAICS_CODE": "562111", "NAICS_DESC": "WASTE TRANSFER STATIONS, NONHAZARDOUS SOLID", "SOURCE": "https://data.ny.gov/Energy-Environment/Solid-Waste-Management-Facilities/2fni-raj8/data", "SOURCEDATE": "2022-02-22", "VAL_METHOD": "GEOCODE", "VAL_DATE": "2022-04-20", "WEBSITE": "NOT AVAILABLE", "REG_ID": "NOT AVAILABLE", "STATUSDATE": "NOT AVAILABLE", "OWNER": "NYC DEP OF SANITATION", "CLOSE_DATE": "NOT AVAILABLE", "PERMIT_NO": "NOT AVAILABLE" }, "geometry": { "type": "Point", "coordinates": [ -8223581.551400000229478, 4983321.797899998724461 ] } },
{ "type": "Feature", "properties": { "OBJECTID": 8879, "SWID": 784301, "NAME": "JD RECYCLING; INC.", "ADDRESS": "216 MANIDA STREET", "CITY": "BRONX", "STATE": "NY", "ZIP": "10474", "ZIP4": "NOT AVAILABLE", "TELEPHONE": "(718) 801-6432", "TYPE": "C&D", "STATUS": "NOT AVAILABLE", "COUNTY": "BRONX", "COUNTYFIPS": "36005", "COUNTRY": "USA", "LATITUDE": 40.805217512578167, "LONGITUDE": -73.885591389231195, "NAICS_CODE": "562212", "NAICS_DESC": "SOLID WASTE LANDFILLS, NONHAZARDOUS", "SOURCE": "https://data.ny.gov/Energy-Environment/Solid-Waste-Management-Facilities/2fni-raj8/data", "SOURCEDATE": "2022-02-22", "VAL_METHOD": "IMAGERY", "VAL_DATE": "2022-04-20", "WEBSITE": "NOT AVAILABLE", "REG_ID": "NOT AVAILABLE", "STATUSDATE": "NOT AVAILABLE", "OWNER": "JOHN INZALACO", "CLOSE_DATE": "NOT AVAILABLE", "PERMIT_NO": "NOT AVAILABLE" }, "geometry": { "type": "Point", "coordinates": [ -8224906.410399999469519, 4983653.605200000107288 ] } },
{ "type": "Feature", "properties": { "OBJECTID": 8887, "SWID": 784309, "NAME": "HUNTERS POINT RECYCLING INC", "ADDRESS": "29-55 HUNTERS POINT AVE", "CITY": "LONG ISLAND CITY", "STATE": "NY", "ZIP": "11101", "ZIP4": "NOT AVAILABLE", "TELEPHONE": "(516) 779-6081", "TYPE": "C&D", "STATUS": "NOT AVAILABLE", "COUNTY": "QUEENS", "COUNTYFIPS": "36081", "COUNTRY": "USA", "LATITUDE": 40.740745164557723, "LONGITUDE": -73.938739774421038, "NAICS_CODE": "562212", "NAICS_DESC": "SOLID WASTE LANDFILLS, NONHAZARDOUS", "SOURCE": "https://data.ny.gov/Energy-Environment/Solid-Waste-Management-Facilities/2fni-raj8/data", "SOURCEDATE": "2022-02-22", "VAL_METHOD": "IMAGERY", "VAL_DATE": "2022-04-20", "WEBSITE": "NOT AVAILABLE", "REG_ID": "NOT AVAILABLE", "STATUSDATE": "NOT AVAILABLE", "OWNER": "JAMES JULIANO", "CLOSE_DATE": "NOT AVAILABLE", "PERMIT_NO": "NOT AVAILABLE" }, "geometry": { "type": "Point", "coordinates": [ -8230822.861600000411272, 4974176.514799997210503 ] } },
{ "type": "Feature", "properties": { "OBJECTID": 8974, "SWID": 784396, "NAME": "THOMAS NOVELLI CONTRACTING", "ADDRESS": "94-20 MERRICK BLVD", "CITY": "JAMAICA", "STATE": "NY", "ZIP": "11433", "ZIP4": "NOT AVAILABLE", "TELEPHONE": "(718) 523-4439", "TYPE": "C&D", "STATUS": "NOT AVAILABLE", "COUNTY": "QUEENS", "COUNTYFIPS": "36081", "COUNTRY": "USA", "LATITUDE": 40.703422000125272, "LONGITUDE": -73.792085000022666, "NAICS_CODE": "562212", "NAICS_DESC": "SOLID WASTE LANDFILLS, NONHAZARDOUS", "SOURCE": "https://data.ny.gov/Energy-Environment/Solid-Waste-Management-Facilities/2fni-raj8/data", "SOURCEDATE": "2022-02-22", "VAL_METHOD": "GEOCODE", "VAL_DATE": "2022-04-20", "WEBSITE": "NOT AVAILABLE", "REG_ID": "NOT AVAILABLE", "STATUSDATE": "NOT AVAILABLE", "OWNER": "ENRICO NOVELLI", "CLOSE_DATE": "NOT AVAILABLE", "PERMIT_NO": "NOT AVAILABLE" }, "geometry": { "type": "Point", "coordinates": [ -8214497.3268, 4968694.407200001180172 ] } },
{ "type": "Feature", "properties": { "OBJECTID": 8976, "SWID": 784398, "NAME": "CROWN CONTAINER TRANSFER STATION", "ADDRESS": "126-46 34 AVENUE", "CITY": "FLUSHING", "STATE": "NY", "ZIP": "11368", "ZIP4": "NOT AVAILABLE", "TELEPHONE": "(718) 785-9976", "TYPE": "C&D", "STATUS": "NOT AVAILABLE", "COUNTY": "QUEENS", "COUNTYFIPS": "36081", "COUNTRY": "USA", "LATITUDE": 40.760257999607063, "LONGITUDE": -73.84370600003183, "NAICS_CODE": "562212", "NAICS_DESC": "SOLID WASTE LANDFILLS, NONHAZARDOUS", "SOURCE": "https://data.ny.gov/Energy-Environment/Solid-Waste-Management-Facilities/2fni-raj8/data", "SOURCEDATE": "2022-02-22", "VAL_METHOD": "GEOCODE", "VAL_DATE": "2022-04-20", "WEBSITE": "NOT AVAILABLE", "REG_ID": "NOT AVAILABLE", "STATUSDATE": "NOT AVAILABLE", "OWNER": "CHUAN JIN LIN", "CLOSE_DATE": "NOT AVAILABLE", "PERMIT_NO": "NOT AVAILABLE" }, "geometry": { "type": "Point", "coordinates": [ -8220243.750199999660254, 4977043.826999999582767 ] } },
{ "type": "Feature", "properties": { "OBJECTID": 8978, "SWID": 784400, "NAME": "EVERGREEN RECYCLING OF CORONA (WILLETS POINT BLVD)", "ADDRESS": "WILLLETS POINT BLVD", "CITY": "CORONA", "STATE": "NY", "ZIP": "11368", "ZIP4": "NOT AVAILABLE", "TELEPHONE": "(718) 205-8038", "TYPE": "C&D", "STATUS": "NOT AVAILABLE", "COUNTY": "QUEENS", "COUNTYFIPS": "36081", "COUNTRY": "USA", "LATITUDE": 40.776482418628746, "LONGITUDE": -73.817560499417482, "NAICS_CODE": "562212", "NAICS_DESC": "SOLID WASTE LANDFILLS, NONHAZARDOUS", "SOURCE": "https://data.ny.gov/Energy-Environment/Solid-Waste-Management-Facilities/2fni-raj8/data", "SOURCEDATE": "2022-02-22", "VAL_METHOD": "GEOCODE", "VAL_DATE": "2022-04-20", "WEBSITE": "NOT AVAILABLE", "REG_ID": "NOT AVAILABLE", "STATUSDATE": "NOT AVAILABLE", "OWNER": "TULLY ENVIRONMENTAL; INC.", "CLOSE_DATE": "NOT AVAILABLE", "PERMIT_NO": "NOT AVAILABLE" }, "geometry": { "type": "Point", "coordinates": [ -8217333.246400000527501, 4979428.564000003039837 ] } },
{ "type": "Feature", "properties": { "OBJECTID": 2140, "SWID": 362194, "NAME": "NYCDOS WEST 59TH STREET MTS", "ADDRESS": "WEST 59TH STREET & WESTSIDE HIGHWAY", "CITY": "NEW YORK", "STATE": "NY", "ZIP": "10023", "ZIP4": "NOT AVAILABLE", "TELEPHONE": "(212) 977-6821", "TYPE": "TRANSFER", "STATUS": "OPEN", "COUNTY": "NEW YORK", "COUNTYFIPS": "36061", "COUNTRY": "USA", "LATITUDE": 40.77309424979984, "LONGITUDE": -73.994085608064324, "NAICS_CODE": "562111", "NAICS_DESC": "WASTE TRANSFER STATIONS, NONHAZARDOUS SOLID", "SOURCE": "https://data.ny.gov/Energy-Environment/Transfer-Stations-Solid-Waste-Management-Facilitie/avuu-s8z3", "SOURCEDATE": "2019-05-02", "VAL_METHOD": "IMAGERY/OTHER", "VAL_DATE": "2020-04-28", "WEBSITE": "NOT AVAILABLE", "REG_ID": "NOT AVAILABLE", "STATUSDATE": "NOT AVAILABLE", "OWNER": "NYCDOS", "CLOSE_DATE": "NOT AVAILABLE", "PERMIT_NO": "NOT AVAILABLE" }, "geometry": { "type": "Point", "coordinates": [ -8236983.931600000709295, 4978930.507799997925758 ] } },
{ "type": "Feature", "properties": { "OBJECTID": 8795, "SWID": 784217, "NAME": "PETRO RECYCLING LLC (290EAST 132STREET)", "ADDRESS": "290 EAST 132 STREET", "CITY": "BRONX", "STATE": "NY", "ZIP": "10454", "ZIP4": "NOT AVAILABLE", "TELEPHONE": "(914) 777-8292", "TYPE": "C&D", "STATUS": "NOT AVAILABLE", "COUNTY": "BRONX", "COUNTYFIPS": "36005", "COUNTRY": "USA", "LATITUDE": 40.806858866143784, "LONGITUDE": -73.92981385742354, "NAICS_CODE": "562212", "NAICS_DESC": "SOLID WASTE LANDFILLS, NONHAZARDOUS", "SOURCE": "https://data.ny.gov/Energy-Environment/Solid-Waste-Management-Facilities/2fni-raj8/data", "SOURCEDATE": "2022-02-22", "VAL_METHOD": "IMAGERY", "VAL_DATE": "2022-04-20", "WEBSITE": "NOT AVAILABLE", "REG_ID": "NOT AVAILABLE", "STATUSDATE": "NOT AVAILABLE", "OWNER": "PETRO RECYCLING LLC", "CLOSE_DATE": "NOT AVAILABLE", "PERMIT_NO": "NOT AVAILABLE" }, "geometry": { "type": "Point", "coordinates": [ -8229829.232999999076128, 4983894.99549999833107 ] } },
{ "type": "Feature", "properties": { "OBJECTID": 8911, "SWID": 784333, "NAME": "NEW YORK RECYCLING LLC", "ADDRESS": "475 EXTERIOR STREET", "CITY": "BRONX", "STATE": "NY", "ZIP": "10451", "ZIP4": "NOT AVAILABLE", "TELEPHONE": "(718) 742-0755", "TYPE": "C&D", "STATUS": "NOT AVAILABLE", "COUNTY": "BRONX", "COUNTYFIPS": "36005", "COUNTRY": "USA", "LATITUDE": 40.818631548407261, "LONGITUDE": -73.931425579227039, "NAICS_CODE": "562212", "NAICS_DESC": "SOLID WASTE LANDFILLS, NONHAZARDOUS", "SOURCE": "https://data.ny.gov/Energy-Environment/Solid-Waste-Management-Facilities/2fni-raj8/data", "SOURCEDATE": "2022-02-22", "VAL_METHOD": "IMAGERY", "VAL_DATE": "2022-04-20", "WEBSITE": "NOT AVAILABLE", "REG_ID": "NOT AVAILABLE", "STATUSDATE": "NOT AVAILABLE", "OWNER": "ERIC COPPOLA", "CLOSE_DATE": "NOT AVAILABLE", "PERMIT_NO": "NOT AVAILABLE" }, "geometry": { "type": "Point", "coordinates": [ -8230008.6491, 4985626.553300000727177 ] } },
{ "type": "Feature", "properties": { "OBJECTID": 2137, "SWID": 362193, "NAME": "NYCDOS STATEN ISLAND TRANSFER STATION", "ADDRESS": "600 WEST SERVICE ROAD", "CITY": "STATEN ISLAND", "STATE": "NY", "ZIP": "10314", "ZIP4": "NOT AVAILABLE", "TELEPHONE": "(718) 967-1400", "TYPE": "TRANSFER", "STATUS": "OPEN", "COUNTY": "RICHMOND", "COUNTYFIPS": "36085", "COUNTRY": "USA", "LATITUDE": 40.579972698681161, "LONGITUDE": -74.193247168821756, "NAICS_CODE": "562111", "NAICS_DESC": "WASTE TRANSFER STATIONS, NONHAZARDOUS SOLID", "SOURCE": "https://data.ny.gov/Energy-Environment/Transfer-Stations-Solid-Waste-Management-Facilitie/avuu-s8z3", "SOURCEDATE": "2019-05-02", "VAL_METHOD": "IMAGERY/OTHER", "VAL_DATE": "2020-04-28", "WEBSITE": "NOT AVAILABLE", "REG_ID": "NOT AVAILABLE", "STATUSDATE": "2/15/2018", "OWNER": "NYCDOS", "CLOSE_DATE": "NOT AVAILABLE", "PERMIT_NO": "2-6403-00141/00001" }, "geometry": { "type": "Point", "coordinates": [ -8259154.495100000873208, 4950583.751999996602535 ] } },
{ "type": "Feature", "properties": { "OBJECTID": 8715, "SWID": 784137, "NAME": "PERFETTO CONTRACTING CO INC", "ADDRESS": "2000 RICHMOND TERRACE", "CITY": "STATEN ISLAND", "STATE": "NY", "ZIP": "10302", "ZIP4": "NOT AVAILABLE", "TELEPHONE": "(718) 858-8600", "TYPE": "C&D", "STATUS": "NOT AVAILABLE", "COUNTY": "RICHMOND", "COUNTYFIPS": "36085", "COUNTRY": "USA", "LATITUDE": 40.63969403625083, "LONGITUDE": -74.13041657996115, "NAICS_CODE": "562212", "NAICS_DESC": "SOLID WASTE LANDFILLS, NONHAZARDOUS", "SOURCE": "https://data.ny.gov/Energy-Environment/Solid-Waste-Management-Facilities/2fni-raj8/data", "SOURCEDATE": "2022-02-22", "VAL_METHOD": "IMAGERY", "VAL_DATE": "2022-04-20", "WEBSITE": "NOT AVAILABLE", "REG_ID": "NOT AVAILABLE", "STATUSDATE": "NOT AVAILABLE", "OWNER": "CHEZ PERFETTO", "CLOSE_DATE": "NOT AVAILABLE", "PERMIT_NO": "NOT AVAILABLE" }, "geometry": { "type": "Point", "coordinates": [ -8252160.225999999791384, 4959341.000900000333786 ] } },
{ "type": "Feature", "properties": { "OBJECTID": 8723, "SWID": 784145, "NAME": "FAZTEC INDUSTRIES ASPHALT PAVE", "ADDRESS": "331 EDWARD CURRY AVENUE", "CITY": "STATEN ISLAND", "STATE": "NY", "ZIP": "10303", "ZIP4": "NOT AVAILABLE", "TELEPHONE": "(718) 494-1600", "TYPE": "C&D", "STATUS": "NOT AVAILABLE", "COUNTY": "RICHMOND", "COUNTYFIPS": "36085", "COUNTRY": "USA", "LATITUDE": 40.611415875242528, "LONGITUDE": -74.186955063025735, "NAICS_CODE": "562212", "NAICS_DESC": "SOLID WASTE LANDFILLS, NONHAZARDOUS", "SOURCE": "https://data.ny.gov/Energy-Environment/Solid-Waste-Management-Facilities/2fni-raj8/data", "SOURCEDATE": "2022-02-22", "VAL_METHOD": "IMAGERY", "VAL_DATE": "2022-04-20", "WEBSITE": "NOT AVAILABLE", "REG_ID": "NOT AVAILABLE", "STATUSDATE": "NOT AVAILABLE", "OWNER": "JOHN DIFAZIO", "CLOSE_DATE": "NOT AVAILABLE", "PERMIT_NO": "NOT AVAILABLE" }, "geometry": { "type": "Point", "coordinates": [ -8258454.06110000051558, 4955193.452200002968311 ] } },
{ "type": "Feature", "properties": { "OBJECTID": 8725, "SWID": 784147, "NAME": "J & A BRUNO; LLC", "ADDRESS": "280 MEREDITH AVENUE", "CITY": "STATEN ISLAND", "STATE": "NY", "ZIP": "10314", "ZIP4": "NOT AVAILABLE", "TELEPHONE": "(718) 494-1500", "TYPE": "C&D", "STATUS": "NOT AVAILABLE", "COUNTY": "RICHMOND", "COUNTYFIPS": "36085", "COUNTRY": "USA", "LATITUDE": 40.600417178310181, "LONGITUDE": -74.195217686846718, "NAICS_CODE": "562212", "NAICS_DESC": "SOLID WASTE LANDFILLS, NONHAZARDOUS", "SOURCE": "https://data.ny.gov/Energy-Environment/Solid-Waste-Management-Facilities/2fni-raj8/data", "SOURCEDATE": "2022-02-22", "VAL_METHOD": "IMAGERY", "VAL_DATE": "2022-04-20", "WEBSITE": "NOT AVAILABLE", "REG_ID": "NOT AVAILABLE", "STATUSDATE": "NOT AVAILABLE", "OWNER": "J AND A BRUNO", "CLOSE_DATE": "NOT AVAILABLE", "PERMIT_NO": "NOT AVAILABLE" }, "geometry": { "type": "Point", "coordinates": [ -8259373.85219999961555, 4953580.751000002026558 ] } },
{ "type": "Feature", "properties": { "OBJECTID": 8728, "SWID": 784150, "NAME": "FLAG CONTAINER SERVICES INC", "ADDRESS": "11 FERRY STREET", "CITY": "STATEN ISLAND", "STATE": "NY", "ZIP": "10302", "ZIP4": "NOT AVAILABLE", "TELEPHONE": "(718) 720-4650", "TYPE": "C&D", "STATUS": "NOT AVAILABLE", "COUNTY": "RICHMOND", "COUNTYFIPS": "36085", "COUNTRY": "USA", "LATITUDE": 40.640904000319438, "LONGITUDE": -74.131893999708268, "NAICS_CODE": "562212", "NAICS_DESC": "SOLID WASTE LANDFILLS, NONHAZARDOUS", "SOURCE": "https://data.ny.gov/Energy-Environment/Solid-Waste-Management-Facilities/2fni-raj8/data", "SOURCEDATE": "2022-02-22", "VAL_METHOD": "IMAGERY", "VAL_DATE": "2022-04-20", "WEBSITE": "NOT AVAILABLE", "REG_ID": "NOT AVAILABLE", "STATUSDATE": "NOT AVAILABLE", "OWNER": "PETER FRANCHINI", "CLOSE_DATE": "NOT AVAILABLE", "PERMIT_NO": "NOT AVAILABLE" }, "geometry": { "type": "Point", "coordinates": [ -8252324.691600000485778, 4959518.5050999969244 ] } },
{ "type": "Feature", "properties": { "OBJECTID": 8750, "SWID": 784172, "NAME": "FAZTEC INDUSTRIES", "ADDRESS": "200 BLOOMFIELD AVENUE", "CITY": "STATEN ISLAND", "STATE": "NY", "ZIP": "10314", "ZIP4": "NOT AVAILABLE", "TELEPHONE": "(718) 494-1600", "TYPE": "C&D", "STATUS": "NOT AVAILABLE", "COUNTY": "RICHMOND", "COUNTYFIPS": "36085", "COUNTRY": "USA", "LATITUDE": 40.613233143394893, "LONGITUDE": -74.185985624436967, "NAICS_CODE": "562212", "NAICS_DESC": "SOLID WASTE LANDFILLS, NONHAZARDOUS", "SOURCE": "https://data.ny.gov/Energy-Environment/Solid-Waste-Management-Facilities/2fni-raj8/data", "SOURCEDATE": "2022-02-22", "VAL_METHOD": "IMAGERY", "VAL_DATE": "2022-04-20", "WEBSITE": "NOT AVAILABLE", "REG_ID": "NOT AVAILABLE", "STATUSDATE": "NOT AVAILABLE", "OWNER": "FAZTEC INDUSTRIES", "CLOSE_DATE": "NOT AVAILABLE", "PERMIT_NO": "NOT AVAILABLE" }, "geometry": { "type": "Point", "coordinates": [ -8258346.143699999898672, 4955459.9375 ] } },
{ "type": "Feature", "properties": { "OBJECTID": 8895, "SWID": 784317, "NAME": "SOUTH SHORE RECYCLING LLC", "ADDRESS": "18 ZARELLI COURT", "CITY": "STATEN ISLAND", "STATE": "NY", "ZIP": "10309", "ZIP4": "NOT AVAILABLE", "TELEPHONE": "(718) 494-8973", "TYPE": "C&D", "STATUS": "NOT AVAILABLE", "COUNTY": "RICHMOND", "COUNTYFIPS": "36085", "COUNTRY": "USA", "LATITUDE": 40.550875118591875, "LONGITUDE": -74.2331348067259, "NAICS_CODE": "562212", "NAICS_DESC": "SOLID WASTE LANDFILLS, NONHAZARDOUS", "SOURCE": "https://data.ny.gov/Energy-Environment/Solid-Waste-Management-Facilities/2fni-raj8/data", "SOURCEDATE": "2022-02-22", "VAL_METHOD": "IMAGERY", "VAL_DATE": "2022-04-20", "WEBSITE": "NOT AVAILABLE", "REG_ID": "NOT AVAILABLE", "STATUSDATE": "NOT AVAILABLE", "OWNER": "JULIA COLUCCIO", "CLOSE_DATE": "NOT AVAILABLE", "PERMIT_NO": "NOT AVAILABLE" }, "geometry": { "type": "Point", "coordinates": [ -8263594.766699999570847, 4946319.855899997055531 ] } },
{ "type": "Feature", "properties": { "OBJECTID": 8898, "SWID": 784320, "NAME": "STOKES WASTE PAPER CO", "ADDRESS": "25 VAN STREET", "CITY": "STATEN ISLAND", "STATE": "NY", "ZIP": "10310", "ZIP4": "NOT AVAILABLE", "TELEPHONE": "(718) 720-7220", "TYPE": "C&D", "STATUS": "NOT AVAILABLE", "COUNTY": "RICHMOND", "COUNTYFIPS": "36085", "COUNTRY": "USA", "LATITUDE": 40.639410999817819, "LONGITUDE": -74.119395999825485, "NAICS_CODE": "562212", "NAICS_DESC": "SOLID WASTE LANDFILLS, NONHAZARDOUS", "SOURCE": "https://data.ny.gov/Energy-Environment/Solid-Waste-Management-Facilities/2fni-raj8/data", "SOURCEDATE": "2022-02-22", "VAL_METHOD": "IMAGERY", "VAL_DATE": "2022-04-20", "WEBSITE": "NOT AVAILABLE", "REG_ID": "NOT AVAILABLE", "STATUSDATE": "NOT AVAILABLE", "OWNER": "DAVID", "CLOSE_DATE": "NOT AVAILABLE", "PERMIT_NO": "NOT AVAILABLE" }, "geometry": { "type": "Point", "coordinates": [ -8250933.4206000007689, 4959299.479299999773502 ] } },
{ "type": "Feature", "properties": { "OBJECTID": 8983, "SWID": 784405, "NAME": "RICHMOND RECYCLING LLC", "ADDRESS": "1900 SOUTH AVENUE", "CITY": "STATEN ISLAND", "STATE": "NY", "ZIP": "10314", "ZIP4": "NOT AVAILABLE", "TELEPHONE": "(718) 698-1100", "TYPE": "C&D", "STATUS": "NOT AVAILABLE", "COUNTY": "RICHMOND", "COUNTYFIPS": "36085", "COUNTRY": "USA", "LATITUDE": 40.602082446647671, "LONGITUDE": -74.192038158034507, "NAICS_CODE": "562212", "NAICS_DESC": "SOLID WASTE LANDFILLS, NONHAZARDOUS", "SOURCE": "https://data.ny.gov/Energy-Environment/Solid-Waste-Management-Facilities/2fni-raj8/data", "SOURCEDATE": "2022-02-22", "VAL_METHOD": "IMAGERY", "VAL_DATE": "2022-04-20", "WEBSITE": "NOT AVAILABLE", "REG_ID": "NOT AVAILABLE", "STATUSDATE": "NOT AVAILABLE", "OWNER": "NOT AVAILABLE", "CLOSE_DATE": "NOT AVAILABLE", "PERMIT_NO": "NOT AVAILABLE" }, "geometry": { "type": "Point", "coordinates": [ -8259019.908700000494719, 4953824.906499996781349 ] } },
{ "type": "Feature", "properties": { "OBJECTID": 9026, "SWID": 784448, "NAME": "DSNY MULDOON AVE HOUSEHOLD SPECIAL WASTE DROP-OFF FACILITY", "ADDRESS": "MULDOON AVENEU", "CITY": "STATEN ISLAND", "STATE": "NY", "ZIP": "10312", "ZIP4": "NOT AVAILABLE", "TELEPHONE": "(718) 317-7885", "TYPE": "TRANSFER", "STATUS": "NOT AVAILABLE", "COUNTY": "RICHMOND", "COUNTYFIPS": "36085", "COUNTRY": "USA", "LATITUDE": 40.574248171216198, "LONGITUDE": -74.19649853278105, "NAICS_CODE": "562111", "NAICS_DESC": "WASTE TRANSFER STATIONS, NONHAZARDOUS SOLID", "SOURCE": "https://data.ny.gov/Energy-Environment/Solid-Waste-Management-Facilities/2fni-raj8/data", "SOURCEDATE": "2022-02-22", "VAL_METHOD": "IMAGERY", "VAL_DATE": "2022-04-20", "WEBSITE": "NOT AVAILABLE", "REG_ID": "NOT AVAILABLE", "STATUSDATE": "NOT AVAILABLE", "OWNER": "NYC DEPT OF SANITATION", "CLOSE_DATE": "NOT AVAILABLE", "PERMIT_NO": "NOT AVAILABLE" }, "geometry": { "type": "Point", "coordinates": [ -8259516.4353, 4949744.745700001716614 ] } },
{ "type": "Feature", "properties": { "OBJECTID": 2021, "SWID": 362080, "NAME": "IESI NY CORPORATION (325 CASANOVA ST)", "ADDRESS": "325-327 CASANOVA STREET", "CITY": "BRONX", "STATE": "NY", "ZIP": "10474", "ZIP4": "NOT AVAILABLE", "TELEPHONE": "(201) 144-3000", "TYPE": "TRANSFER", "STATUS": "OPEN", "COUNTY": "BRONX", "COUNTYFIPS": "36005", "COUNTRY": "USA", "LATITUDE": 40.807123377441933, "LONGITUDE": -73.888678242007245, "NAICS_CODE": "562111", "NAICS_DESC": "WASTE TRANSFER STATIONS, NONHAZARDOUS SOLID", "SOURCE": "https://data.ny.gov/Energy-Environment/Transfer-Stations-Solid-Waste-Management-Facilitie/avuu-s8z3", "SOURCEDATE": "2019-05-02", "VAL_METHOD": "IMAGERY/OTHER", "VAL_DATE": "2020-04-28", "WEBSITE": "NOT AVAILABLE", "REG_ID": "NOT AVAILABLE", "STATUSDATE": "3/15/2017", "OWNER": "IESI NY CORPORATION", "CLOSE_DATE": "NOT AVAILABLE", "PERMIT_NO": "2-6007-00058/00001" }, "geometry": { "type": "Point", "coordinates": [ -8225250.0373, 4983933.897100001573563 ] } },
{ "type": "Feature", "properties": { "OBJECTID": 2086, "SWID": 362147, "NAME": "METROPOLITAN TRANSFER STATION", "ADDRESS": "287 HALLECK STREET", "CITY": "BRONX", "STATE": "NY", "ZIP": "10474", "ZIP4": "NOT AVAILABLE", "TELEPHONE": "(718) 589-7733", "TYPE": "TRANSFER", "STATUS": "OPEN", "COUNTY": "BRONX", "COUNTYFIPS": "36005", "COUNTRY": "USA", "LATITUDE": 40.806567700738867, "LONGITUDE": -73.879937168965114, "NAICS_CODE": "562111", "NAICS_DESC": "WASTE TRANSFER STATIONS, NONHAZARDOUS SOLID", "SOURCE": "https://data.ny.gov/Energy-Environment/Transfer-Stations-Solid-Waste-Management-Facilitie/avuu-s8z3", "SOURCEDATE": "2019-05-02", "VAL_METHOD": "IMAGERY/OTHER", "VAL_DATE": "2020-04-28", "WEBSITE": "NOT AVAILABLE", "REG_ID": "NOT AVAILABLE", "STATUSDATE": "NOT AVAILABLE", "OWNER": "VINCENT VERRILLI", "CLOSE_DATE": "NOT AVAILABLE", "PERMIT_NO": "2-6007-00007/00001" }, "geometry": { "type": "Point", "coordinates": [ -8224276.985500000417233, 4983852.17400000244379 ] } },
{ "type": "Feature", "properties": { "OBJECTID": 3258, "SWID": 362443, "NAME": "ENVIRONMENTAL TRANSLOAD SERVICE LLC", "ADDRESS": "100 OAK POINT AVENUE", "CITY": "BRONX", "STATE": "NY", "ZIP": "10474", "ZIP4": "NOT AVAILABLE", "TELEPHONE": "(718) 328-5800", "TYPE": "TRANSFER", "STATUS": "OPEN", "COUNTY": "BRONX", "COUNTYFIPS": "36005", "COUNTRY": "USA", "LATITUDE": 40.808390648109992, "LONGITUDE": -73.898100216052114, "NAICS_CODE": "562111", "NAICS_DESC": "WASTE TRANSFER STATIONS, NONHAZARDOUS SOLID", "SOURCE": "https://data.ny.gov/Energy-Environment/Transfer-Stations-Solid-Waste-Management-Facilitie/avuu-s8z3", "SOURCEDATE": "2019-05-02", "VAL_METHOD": "IMAGERY/OTHER", "VAL_DATE": "2020-04-28", "WEBSITE": "NOT AVAILABLE", "REG_ID": "NOT AVAILABLE", "STATUSDATE": "NOT AVAILABLE", "OWNER": "NOT AVAILABLE", "CLOSE_DATE": "NOT AVAILABLE", "PERMIT_NO": "NOT AVAILABLE" }, "geometry": { "type": "Point", "coordinates": [ -8226298.886600000783801, 4984120.276699997484684 ] } },
{ "type": "Feature", "properties": { "OBJECTID": 3259, "SWID": 362442, "NAME": "TRI-STATE TRANSFER ASSOCIATES INC.", "ADDRESS": "1199 RANDALL AVE", "CITY": "BRONX", "STATE": "NY", "ZIP": "10474", "ZIP4": "NOT AVAILABLE", "TELEPHONE": "(718) 617-0771", "TYPE": "TRANSFER", "STATUS": "OPEN", "COUNTY": "BRONX", "COUNTYFIPS": "36005", "COUNTRY": "USA", "LATITUDE": 40.811807862343016, "LONGITUDE": -73.889907822088276, "NAICS_CODE": "562111", "NAICS_DESC": "WASTE TRANSFER STATIONS, NONHAZARDOUS SOLID", "SOURCE": "https://data.ny.gov/Energy-Environment/Transfer-Stations-Solid-Waste-Management-Facilitie/avuu-s8z3", "SOURCEDATE": "2019-05-02", "VAL_METHOD": "IMAGERY/OTHER", "VAL_DATE": "2020-04-28", "WEBSITE": "NOT AVAILABLE", "REG_ID": "NOT AVAILABLE", "STATUSDATE": "NOT AVAILABLE", "OWNER": "NOT AVAILABLE", "CLOSE_DATE": "NOT AVAILABLE", "PERMIT_NO": "NOT AVAILABLE" }, "geometry": { "type": "Point", "coordinates": [ -8225386.913499999791384, 4984622.869699999690056 ] } },
{ "type": "Feature", "properties": { "OBJECTID": 8713, "SWID": 784135, "NAME": "A J RECYCLING INC (ROLL-TECH)", "ADDRESS": "325 FAILE STREET", "CITY": "BRONX", "STATE": "NY", "ZIP": "10474", "ZIP4": "NOT AVAILABLE", "TELEPHONE": "(718) 328-7334", "TYPE": "C&D", "STATUS": "NOT AVAILABLE", "COUNTY": "BRONX", "COUNTYFIPS": "36005", "COUNTRY": "USA", "LATITUDE": 40.808136611215673, "LONGITUDE": -73.884634338803664, "NAICS_CODE": "562212", "NAICS_DESC": "SOLID WASTE LANDFILLS, NONHAZARDOUS", "SOURCE": "https://data.ny.gov/Energy-Environment/Solid-Waste-Management-Facilities/2fni-raj8/data", "SOURCEDATE": "2022-02-22", "VAL_METHOD": "IMAGERY", "VAL_DATE": "2022-04-20", "WEBSITE": "NOT AVAILABLE", "REG_ID": "NOT AVAILABLE", "STATUSDATE": "NOT AVAILABLE", "OWNER": "ANDREW BULLARO", "CLOSE_DATE": "NOT AVAILABLE", "PERMIT_NO": "NOT AVAILABLE" }, "geometry": { "type": "Point", "coordinates": [ -8224799.871999999508262, 4984082.914800003170967 ] } },
{ "type": "Feature", "properties": { "OBJECTID": 8848, "SWID": 784270, "NAME": "ZEVEL TRANSFER LLC", "ADDRESS": "620-630 TRUXTON STREET", "CITY": "BRONX", "STATE": "NY", "ZIP": "10474", "ZIP4": "NOT AVAILABLE", "TELEPHONE": "(718) 991-7700", "TYPE": "C&D", "STATUS": "NOT AVAILABLE", "COUNTY": "BRONX", "COUNTYFIPS": "36005", "COUNTRY": "USA", "LATITUDE": 40.811713035128555, "LONGITUDE": -73.892284993757414, "NAICS_CODE": "562212", "NAICS_DESC": "SOLID WASTE LANDFILLS, NONHAZARDOUS", "SOURCE": "https://data.ny.gov/Energy-Environment/Solid-Waste-Management-Facilities/2fni-raj8/data", "SOURCEDATE": "2022-02-22", "VAL_METHOD": "IMAGERY", "VAL_DATE": "2022-04-20", "WEBSITE": "NOT AVAILABLE", "REG_ID": "NOT AVAILABLE", "STATUSDATE": "NOT AVAILABLE", "OWNER": "JACK GUTTMAN", "CLOSE_DATE": "NOT AVAILABLE", "PERMIT_NO": "NOT AVAILABLE" }, "geometry": { "type": "Point", "coordinates": [ -8225651.539100000634789, 4984608.922499999403954 ] } },
{ "type": "Feature", "properties": { "OBJECTID": 8880, "SWID": 784302, "NAME": "JOHN DANNA & SONS INC", "ADDRESS": "318 BRYANT AVENUE", "CITY": "BRONX", "STATE": "NY", "ZIP": "10474", "ZIP4": "NOT AVAILABLE", "TELEPHONE": "(718) 542-1774", "TYPE": "C&D", "STATUS": "NOT AVAILABLE", "COUNTY": "BRONX", "COUNTYFIPS": "36005", "COUNTRY": "USA", "LATITUDE": 40.80747089706432, "LONGITUDE": -73.883377670243249, "NAICS_CODE": "562212", "NAICS_DESC": "SOLID WASTE LANDFILLS, NONHAZARDOUS", "SOURCE": "https://data.ny.gov/Energy-Environment/Solid-Waste-Management-Facilities/2fni-raj8/data", "SOURCEDATE": "2022-02-22", "VAL_METHOD": "IMAGERY", "VAL_DATE": "2022-04-20", "WEBSITE": "NOT AVAILABLE", "REG_ID": "NOT AVAILABLE", "STATUSDATE": "NOT AVAILABLE", "OWNER": "RICHARD DANNA", "CLOSE_DATE": "NOT AVAILABLE", "PERMIT_NO": "NOT AVAILABLE" }, "geometry": { "type": "Point", "coordinates": [ -8224659.9803, 4983985.007100000977516 ] } },
{ "type": "Feature", "properties": { "OBJECTID": 8929, "SWID": 784351, "NAME": "ASHPA TRANSFER LLC", "ADDRESS": "1264 VIELE AVENUE", "CITY": "BRONX", "STATE": "NY", "ZIP": "10474", "ZIP4": "NOT AVAILABLE", "TELEPHONE": "(718) 991-7700", "TYPE": "C&D", "STATUS": "NOT AVAILABLE", "COUNTY": "BRONX", "COUNTYFIPS": "36005", "COUNTRY": "USA", "LATITUDE": 40.806352536140707, "LONGITUDE": -73.88596844618678, "NAICS_CODE": "562212", "NAICS_DESC": "SOLID WASTE LANDFILLS, NONHAZARDOUS", "SOURCE": "https://data.ny.gov/Energy-Environment/Solid-Waste-Management-Facilities/2fni-raj8/data", "SOURCEDATE": "2022-02-22", "VAL_METHOD": "IMAGERY", "VAL_DATE": "2022-04-20", "WEBSITE": "NOT AVAILABLE", "REG_ID": "NOT AVAILABLE", "STATUSDATE": "NOT AVAILABLE", "OWNER": "JACK GUTTMAN", "CLOSE_DATE": "NOT AVAILABLE", "PERMIT_NO": "NOT AVAILABLE" }, "geometry": { "type": "Point", "coordinates": [ -8224948.384199999272823, 4983820.530000001192093 ] } },
{ "type": "Feature", "properties": { "OBJECTID": 8948, "SWID": 784370, "NAME": "BRONX CITY RECYCLING (1390 VIELE AVE)", "ADDRESS": "1390 VIELE AVENUE", "CITY": "BRONX", "STATE": "NY", "ZIP": "10474", "ZIP4": "NOT AVAILABLE", "TELEPHONE": "(718) 860-6071", "TYPE": "C&D", "STATUS": "NOT AVAILABLE", "COUNTY": "BRONX", "COUNTYFIPS": "36005", "COUNTRY": "USA", "LATITUDE": 40.807155840269843, "LONGITUDE": -73.880194732101188, "NAICS_CODE": "562212", "NAICS_DESC": "SOLID WASTE LANDFILLS, NONHAZARDOUS", "SOURCE": "https://data.ny.gov/Energy-Environment/Solid-Waste-Management-Facilities/2fni-raj8/data", "SOURCEDATE": "2022-02-22", "VAL_METHOD": "IMAGERY", "VAL_DATE": "2022-04-20", "WEBSITE": "NOT AVAILABLE", "REG_ID": "NOT AVAILABLE", "STATUSDATE": "NOT AVAILABLE", "OWNER": "DOMNICK EUGENE", "CLOSE_DATE": "NOT AVAILABLE", "PERMIT_NO": "NOT AVAILABLE" }, "geometry": { "type": "Point", "coordinates": [ -8224305.657299999147654, 4983938.671400003135204 ] } },
{ "type": "Feature", "properties": { "OBJECTID": 8957, "SWID": 784379, "NAME": "TILCON NEW YORK INC", "ADDRESS": "980 EAST 149 STREET", "CITY": "BRONX", "STATE": "NY", "ZIP": "10455", "ZIP4": "NOT AVAILABLE", "TELEPHONE": "(718) 665-9350", "TYPE": "C&D", "STATUS": "NOT AVAILABLE", "COUNTY": "BRONX", "COUNTYFIPS": "36005", "COUNTRY": "USA", "LATITUDE": 40.806708000373987, "LONGITUDE": -73.902535999736585, "NAICS_CODE": "562212", "NAICS_DESC": "SOLID WASTE LANDFILLS, NONHAZARDOUS", "SOURCE": "https://data.ny.gov/Energy-Environment/Solid-Waste-Management-Facilities/2fni-raj8/data", "SOURCEDATE": "2022-02-22", "VAL_METHOD": "GEOCODE", "VAL_DATE": "2022-04-20", "WEBSITE": "NOT AVAILABLE", "REG_ID": "NOT AVAILABLE", "STATUSDATE": "NOT AVAILABLE", "OWNER": "TILCON NEW YORK INC", "CLOSE_DATE": "NOT AVAILABLE", "PERMIT_NO": "NOT AVAILABLE" }, "geometry": { "type": "Point", "coordinates": [ -8226792.675799999386072, 4983872.807700000703335 ] } },
{ "type": "Feature", "properties": { "OBJECTID": 9033, "SWID": 784455, "NAME": "CASTLE HILL RECYCLING", "ADDRESS": "1000 ZEREGA AVENUE", "CITY": "BRONX", "STATE": "NY", "ZIP": "10462", "ZIP4": "NOT AVAILABLE", "TELEPHONE": "(646) 342-7874", "TYPE": "C&D", "STATUS": "NOT AVAILABLE", "COUNTY": "BRONX", "COUNTYFIPS": "36005", "COUNTRY": "USA", "LATITUDE": 40.82956148677323, "LONGITUDE": -73.843565134723178, "NAICS_CODE": "562212", "NAICS_DESC": "SOLID WASTE LANDFILLS, NONHAZARDOUS", "SOURCE": "https://data.ny.gov/Energy-Environment/Solid-Waste-Management-Facilities/2fni-raj8/data", "SOURCEDATE": "2022-02-22", "VAL_METHOD": "IMAGERY", "VAL_DATE": "2022-04-20", "WEBSITE": "NOT AVAILABLE", "REG_ID": "NOT AVAILABLE", "STATUSDATE": "NOT AVAILABLE", "OWNER": "FRANK TODINO/CASTLE HILL RECYCLING LLC", "CLOSE_DATE": "NOT AVAILABLE", "PERMIT_NO": "NOT AVAILABLE" }, "geometry": { "type": "Point", "coordinates": [ -8220228.069199999794364, 4987234.433200001716614 ] } }
]
}
