{"type":"FeatureCollection","features":[{"type":"Feature","properties":{"name":"Cais do Valongo, Rio de Janeiro, Brazil"},"geometry":{"coordinates":[-43.18725769067146,-22.89678247425526],"type":"Point"}},{"type":"Feature","properties":{"name":"Fortaleza de São Miguel, Luanda, Angola"},"geometry":{"coordinates":[13.223185824830665,-8.80762626764674],"type":"Point"}},{"type":"Feature","properties":{"name":"Rågsved, Stockholm, Sweden"},"geometry":{"coordinates":[18.027353202707474,59.25702540603959],"type":"Point"}},{"type":"Feature","properties":{"name":"Gaza, Palestine"},"geometry":{"coordinates":[34.381918348262445,31.443509588305304],"type":"Point"}},{"type":"Feature","properties":{"name":"Troparyovo-Nikulino District, Moscow, Russia"},"geometry":{"coordinates":[37.47291999866064,55.6636943287603],"type":"Point"}},{"type":"Feature","properties":{"name":"San Juan, Puerto Rico"},"geometry":{"coordinates":[-66.1160244990468,18.46745662729927],"type":"Point"}},{"type":"Feature","properties":{"name":"Cartagena, Colombia"},"geometry":{"coordinates":[-75.55041798189082,10.425616108481336],"type":"Point"}},{"type":"Feature","properties":{"name":"Brasilia, Brazil"},"geometry":{"coordinates":[-47.88481912786358,-15.789577198821306],"type":"Point"}},{"type":"Feature","properties":{"name":"Istanbul, Turkey"},"geometry":{"coordinates":[28.997548588031833,41.015889166003234],"type":"Point"}},{"type":"Feature","properties":{"name":"Microrayon, Kabul, Afghanistan"},"geometry":{"coordinates":[69.2014607895878,34.53676173917246],"type":"Point"}},{"type":"Feature","properties":{"name":"Manhattan, New York, New York"},"geometry":{"coordinates":[-73.98180605761016,40.76066071249875],"type":"Point"}},{"type":"Feature","properties":{"name":"Genoa, Italy"},"geometry":{"coordinates":[8.935041399612004,44.40492116058306],"type":"Point"}},{"type":"Feature","properties":{"name":"Venice, Italy"},"geometry":{"coordinates":[12.257866696977032,45.481506501423155],"type":"Point"}},{"type":"Feature","properties":{"name":"Amsterdam, Netherlands"},"geometry":{"coordinates":[4.894388237042733,52.37665717745156],"type":"Point"}},{"type":"Feature","properties":{"name":"Brooklyn, New York"},"geometry":{"coordinates":[-73.93368520078317,40.709431326765326],"type":"Point"}},{"type":"Feature","properties":{"name":"Standing Rock"},"geometry":{"coordinates":[-101.11701296599976,45.90456912191715],"type":"Point"}}]}